Time,Lat,Long,Pitch,Yaw,Roll,AccX,AccY,AccZ,GyroX,GyroY,GyroZ
2015-10-18 17:14:53.401,-36.881527,174.64574,22.20,36.48,153.44,-221.91,3055.48,20379.70,29.18,152.60,-109.18
2015-10-18 17:14:53.715,-36.881527,174.64574,19.95,36.76,155.35,-637.91,2918,20457.70,8.18,170.60,-103.18
2015-10-18 17:14:54.186,-36.881527,174.64574,17.64,37.01,157.12,-721.91,296,20382.70,11.18,174.60,-103.18
2015-10-18 17:14:54.598,-36.881527,174.64574,15.26,37.21,158.75,-616.91,297,20466.70,10.18,172.60,-104.18
2015-10-18 17:14:55.134,-36.881527,174.64574,12.79,37.40,160.29,-784.91,298,20333.70,16.18,175.60,-104.18
2015-10-18 17:14:55.501,-36.881527,174.64574,10.26,37.59,161.71,-726.91,301,20428.70,11.18,172.60,-103.18
2015-10-18 17:14:55.729,-36.881527,174.64574,7.71,37.74,163.01,-723.91,290,20415.70,10.18,172.60,-103.18
2015-10-18 17:14:55.985,-36.881527,174.64574,5.99,37.91,163.81,-747.91,295,20405.70,14.18,174.60,-103.18
2015-10-18 17:14:56.270,-36.881527,174.64574,4.26,38.03,164.56,-685.91,290,20470.70,14.18,172.60,-103.18
2015-10-18 17:14:56.620,-36.881527,174.64574,2.50,38.15,165.27,-816.91,290,20484.70,14.18,172.60,-103.18
2015-10-18 17:14:57.078,-36.881527,174.64574,-0.18,38.37,166.29,-782.91,300,20356.70,17.18,173.60,-103.18
2015-10-18 17:14:57.338,-36.881527,174.64574,-2.90,38.64,167.21,-709.91,2910,20410.70,9.18,171.60,-103.18
2015-10-18 17:14:57.755,-36.881527,174.64574,-4.73,38.83,167.77,-732.91,3019,20455.70,9.18,173.60,-104.18
2015-10-18 17:14:58.099,-36.881527,174.64574,-7.47,39.14,168.54,-716.91,2887,20405.70,8.18,173.60,-103.18
2015-10-18 17:14:58.371,-36.881527,174.64574,-10.23,39.49,169.22,-769.91,2990,20466.70,9.18,172.60,-103.18
2015-10-18 17:14:58.952,-36.881527,174.64574,-15.90,40.32,170.33,-748.91,292,20438.70,13.18,173.60,-103.18
2015-10-18 17:14:59.207,-36.881527,174.64574,-17.79,40.64,170.62,-676.91,286,20419.70,11.18,171.60,-104.18
2015-10-18 17:15:00.790,-36.881527,174.64574,-27.36,42.62,171.53,-685.91,292,20406.70,12.18,171.60,-104.18
2015-10-18 17:15:01.096,-36.881527,174.64574,-31.18,43.73,171.59,-769.91,291,20497.70,12.18,172.60,-104.18
2015-10-18 17:15:01.664,-36.881527,174.64574,-33.10,44.31,171.55,-779.91,300,20402.70,15.18,173.60,-104.18
2015-10-18 17:15:01.967,-36.881527,174.64574,-36.96,45.75,171.30,-734.91,2983,20387.70,9.18,174.60,-103.18
2015-10-18 17:15:02.280,-36.881527,174.64574,-38.88,46.52,171.05,-633.91,2907,20414.70,8.18,171.60,-103.18
2015-10-18 17:15:03.198,-36.881527,174.64574,-44.57,49.10,169.91,-722.91,2991,20460.70,9.18,174.60,-104.18
2015-10-18 17:15:03.822,-36.881527,174.64574,-50.20,52.48,167.92,-672.91,2507,20527.70,7.18,172.60,-101.18
2015-10-18 17:15:04.107,-36.881527,174.64574,-52.96,54.73,166.49,-776.91,248,20543.70,16.18,177.60,-102.18
2015-10-18 17:15:04.353,-36.881527,174.64574,-54.78,56.64,165.23,-653.91,231,20600.70,15.18,174.60,-110.18
2015-10-18 17:15:05.147,-36.881527,174.64574,-57.84,63.29,160.54,-748.91,252,20375.70,19.18,167.60,-155.18
2015-10-18 17:15:05.687,174.64575,174.64574,-59.90,73.78,151.89,-760.91,2765.48,20361.70,6.18,164.6,-207.18
2015-10-18 17:15:05.947,-36.88154,174.64575,-60.42,84.26,141.49,-1070.91,3285.48,20585.70,17.18,168.60,-215.18
2015-10-18 17:15:06.339,-36.88154,174.64575,-60.23,87.65,136.99,-1071.91,342,20375.70,3.18,154.60,-198.18
2015-10-18 17:15:06.758,-36.88154,174.64575,-60.02,90.68,130.66,-877.91,276,20437.70,-1.82,165.60,-178.18
2015-10-18 17:15:07.045,-36.88154,174.64575,-59.10,92.44,123.70,-793.91,2453,20516.70,7.18,179.60,-200.18
2015-10-18 17:15:07.554,-36.88154,174.64575,-58.03,91.13,119.17,-831.91,264,20316.70,-4.82,172.60,-204.18
2015-10-18 17:15:08.217,-36.88154,174.64575,-55.71,82.99,111.12,-1142.91,324,20359.70,2.18,167.60,-188.18
2015-10-18 17:15:08.462,-36.88154,174.64575,-54.48,67.04,104.60,-964.91,2114,20786.70,5.18,163.60,-102.18
2015-10-18 17:15:08.992,-36.88154,174.64575,-54.18,60.72,102.28,-822.91,269,20427.70,19.18,173.60,-111.18
2015-10-18 17:15:09.227,-36.88154,174.64575,-53.10,48.71,97.68,-906.91,274,20192.70,13.18,171.60,-114.18
2015-10-18 17:15:09.516,-36.88154,174.64575,-52.52,42.58,95.67,-922.91,329,20331.70,24.18,169.60,-108.18
2015-10-18 17:15:09.884,-36.88154,174.64575,-51.85,36.66,93.63,-958.91,338,20473.70,15.18,170.60,-107.18
2015-10-18 17:15:10.318,-36.88154,174.64575,-49.92,27.86,91.07,-765.91,377,20270.70,23.18,164.60,-149.18
2015-10-18 17:15:10.548,-36.88154,174.64575,-45.26,19.64,89.47,-409.91,350,20553.70,23.18,146.60,-265.18
2015-10-18 17:15:10.972,-36.88154,174.64575,-40.60,15.90,88.82,-558.91,366,20187.70,29.18,161.60,-345.18
2015-10-18 17:15:11.235,-36.88154,174.64575,-31.71,15.41,87.69,-664.91,3167,20266.70,2.18,185.60,-432.18
2015-10-18 17:15:11.513,-36.88154,174.64575,-25.04,15.32,87.21,-848.91,254,20284.70,-5.82,187.60,-448.18
2015-10-18 17:15:12.117,-36.88154,174.64575,-8.11,9.35,87.01,-676.91,2601,20360.70,0.18,135.60,-468.18
2015-10-18 17:15:12.413,-36.88154,174.64575,-1.64,8.13,87.26,-459.91,234,20517.70,-7.82,149.60,-460.18
2015-10-18 17:15:12.637,-36.88154,174.64575,4.57,7.44,87.75,-508.91,250,20523.70,-1.82,132.60,-446.18
2015-10-18 17:15:12.914,-36.88154,174.64575,9.99,6.62,88.57,-1082.91,1704.48,20677.70,11.18,170.60,-403.18
2015-10-18 17:15:13.166,-36.88154,174.64575,14.20,5.84,89.66,-1106.91,1724.48,20662.70,34.18,150.60,-324.18
2015-10-18 17:15:13.578,-36.88154,174.64575,17.16,5.98,90.82,-1175.91,1763.48,20188.70,23.18,162.60,-246.18
2015-10-18 17:15:13.828,-36.88154,174.64575,19.46,7.08,92.64,-1403.91,1413.48,20584.70,13.18,172.60,-149.18
2015-10-18 17:15:14.084,-36.88154,174.64575,20.08,7.96,94.08,-1229.91,2668.48,20509.70,31.18,137.60,-101.18
2015-10-18 17:15:14.352,-36.88154,174.64575,20.53,9.71,95.37,-1197.91,264,20488.70,8.18,187.60,-104.18
2015-10-18 17:15:14.599,-36.88154,174.64575,20.57,11.38,96.64,-1053.91,247,20567.70,15.18,165.60,-74.18
2015-10-18 17:15:14.881,-36.88154,174.64575,20.23,12.99,97.97,-1290.91,239,20502.70,14.18,179.60,-50.18
2015-10-18 17:15:15.122,-36.88154,174.64575,19.87,14.34,99.18,-1033.91,1995,20548.70,2.18,180.60,-55.18
2015-10-18 17:15:15.533,-36.88154,174.64575,19.76,15.47,100.39,-1032.91,1988,20432.70,4.18,167.60,-70.18
2015-10-18 17:15:15.803,-36.88154,174.64575,20.54,17.24,102.27,-894.91,234,20405.70,-0.82,166.60,-124.18
2015-10-18 17:15:16.442,-36.88154,174.64575,25.60,22.42,106.23,-1339.91,2416.48,20584.70,18.18,165.60,-241.18
2015-10-18 17:15:16.850,174.64575,174.64575,28.41,25.31,108.52,-1532.91,2642.48,20562.70,36.18,177.60,-272.18
2015-10-18 17:15:17.378,-36.881565,174.64575,32.85,28.16,112.44,-1373.91,3127.48,20606.70,37.18,153.60,-302.18
2015-10-18 17:15:17.619,-36.881565,174.64575,37.35,32.89,118.10,-1525.91,3064.48,20638.70,15.18,151.60,-254.18
2015-10-18 17:15:18.423,-36.881565,174.64575,40.87,43.84,127.46,-1474.91,2856.48,20261.70,28.18,149.60,-200.18
2015-10-18 17:15:18.700,-36.881565,174.64575,41.39,46.02,130.81,-1289.91,2664.48,20676.70,10.18,184.60,-197.18
2015-10-18 17:15:19.226,-36.881565,174.64575,42.29,48.49,137.62,-1284.91,2580.48,20334.70,14.18,160.60,-209.18
2015-10-18 17:15:20.018,-36.881565,174.64575,42.68,54.89,148.39,-1434.91,2315.48,20463.70,11.18,141.60,-206.18
2015-10-18 17:15:20.258,-36.881565,174.64575,42.41,57.60,151.94,-1205.91,2439.48,20553.70,18.18,164.60,-214.18
2015-10-18 17:15:20.787,-36.881565,174.64575,42.12,60.63,155.53,-1202.91,2517.48,20474.70,11.18,153.60,-227.18
2015-10-18 17:15:21.381,-36.881565,174.64575,40.76,66.52,162.38,-1414.91,2798.48,20445.70,22.18,151.60,-217.18
2015-10-18 17:15:27.471,-36.881565,174.64575,38.47,71.40,168.41,-1269.91,2834.48,20328.70,19.18,172.60,-208.18
2015-10-18 17:15:38.466,-36.881565,174.64575,-81.64,-27.66,-21.99,-1039.91,253,20558.70,6.18,174.60,-102.18
2015-10-18 17:15:39.372,-36.881565,174.64575,-75.21,-46.43,-0.22,-1021.91,2542.48,20465.70,10.18,174.60,-103.18
2015-10-18 17:15:39.635,-36.881565,174.64575,-73.20,-48.67,2.93,-1101.91,249,20494.70,0.18,173.60,-102.18
2015-10-18 17:15:40.957,-36.881565,174.64575,-65.92,-52.25,10.11,-1092.91,248,20531.70,3.18,172.60,-104.18
2015-10-18 17:15:41.375,-36.881565,174.64575,-60.65,-52.75,13.36,-1111.91,2527.48,20499.70,11.18,173.60,-104.18
2015-10-18 17:15:41.764,-36.881565,174.64575,-57.46,-52.61,14.89,-1052.91,2566.48,20449.70,19.18,173.60,-104.18
2015-10-18 17:15:42.157,-36.881565,174.64575,-54.24,-52.31,16.25,-1027.91,250,20534.70,5.18,173.60,-103.18
2015-10-18 17:15:42.422,-36.881565,174.64575,-51.05,-51.96,17.47,-1015.91,2643.48,20476.70,17.18,173.60,-104.18
2015-10-18 17:15:42.660,174.64577,174.64575,-48.92,-51.68,18.21,-1077.91,2410.48,20459.70,10.18,173.60,-103.18
2015-10-18 17:15:43.459,-36.88153,174.64577,-42.48,-50.57,20.20,-1126.91,2529.48,20558.70,20.18,173.60,-104.18
2015-10-18 17:15:44.372,-36.88153,174.64577,-35.00,-49.16,22.24,-989.91,248,20421.70,11.18,173.60,-102.18
2015-10-18 17:15:45.557,-36.88153,174.64577,-25.39,-47.51,24.65,-1040.91,2528.48,20470.70,14.18,172.60,-104.18
2015-10-18 17:15:46.347,-36.88153,174.64577,-18.95,-46.46,26.21,-1082.91,2426.48,20487.70,16.18,172.60,-103.18
2015-10-18 17:15:47.674,-36.88153,174.64577,-9.38,-44.77,28.66,-1026.91,2563.48,20517.70,17.18,172.60,-104.18
2015-10-18 17:15:48.200,-36.88153,174.64577,-6.18,-44.24,29.48,-1081.91,2583.48,20399.70,12.18,174.60,-104.18
2015-10-18 17:15:48.860,-36.88153,174.64577,0.15,-43.16,31.16,-1119.91,2517.48,20504.70,19.18,174.60,-103.18
2015-10-18 17:15:49.112,-36.88153,174.64577,3.31,-42.66,32.05,-1000.91,2560.48,20399.70,10.18,173.60,-104.18
2015-10-18 17:15:49.535,-36.88153,174.64577,5.42,-42.23,32.67,-1058.91,2572.48,20494.70,13.18,172.60,-104.18
2015-10-18 17:15:49.788,-36.88153,174.64577,8.55,-41.75,33.61,-1122.91,2596.48,20517.70,18.18,173.60,-103.18
2015-10-18 17:15:50.316,-36.88153,174.64577,10.61,-41.31,34.26,-1091.91,249,20465.70,3.18,173.60,-102.18
2015-10-18 17:15:50.559,-36.88153,174.64577,14.78,-40.42,35.66,-977.91,2454,20453.70,9.18,172.60,-104.18
2015-10-18 17:15:51.350,-36.88153,174.64577,19.96,-39.24,37.57,-1085.91,2610.48,20374.70,19.18,173.60,-104.18
2015-10-18 17:15:52.677,-36.88153,174.64577,31.28,-36.32,42.39,-1040.91,2868.48,20403.70,16.18,170.60,-124.18
2015-10-18 17:15:52.930,-36.88153,174.64577,33.64,-36.12,43.10,-944.91,2944,20478.70,4.18,167.60,-145.18
2015-10-18 17:15:53.202,-36.88153,174.64577,36.27,-36.02,43.62,-976.91,301,20512.70,18.18,162.60,-172.18
2015-10-18 17:15:53.752,174.64577,174.64577,39.12,-36.24,43.86,-1033.91,2890.48,20476.70,20.18,155.60,-197.18
2015-10-18 17:15:54.122,-36.88153,174.64577,46.45,-37.48,43.64,-940.91,309,20254.70,18.18,175.60,-269.18
2015-10-18 17:15:54.389,-36.88153,174.64577,52.27,-40.23,41.44,-707.91,307,20505.70,31.18,134.60,-313.18
2015-10-18 17:15:54.808,-36.88153,174.64577,56.59,-42.22,39.21,-923.91,316,20382.70,19.18,179.60,-331.18
2015-10-18 17:15:55.187,-36.88153,174.64577,62.09,-46.40,34.54,-728.91,338,20298.70,26.18,151.60,-305.18
2015-10-18 17:15:55.569,-36.88153,174.64577,67.16,-52.39,27.13,-675.91,314,20399.70,-7.82,162.60,-296.18
2015-10-18 17:15:55.838,-36.88153,174.64577,71.78,-60.95,17.35,-1160.91,2719.48,20262.70,-4.82,153.60,-276.18
2015-10-18 17:15:56.104,-36.88153,174.64577,74.32,-69.02,9.83,-1075.91,2666.48,20446.70,-1.82,171.60,-247.18
2015-10-18 17:15:56.491,-36.88153,174.64577,76.35,-78.37,1.10,-869.91,2459,20344.70,6.18,147.60,-227.18
2015-10-18 17:15:57.145,-36.88153,174.64577,80.32,-117.13,-34.53,-972.91,275,20066.70,13.18,181.60,-177.18
2015-10-18 17:15:59.670,-36.88153,174.64577,69.41,131.98,-115.29,-1024.91,2002.48,20565.70,10.18,173.60,-116.18
2015-10-18 17:16:01.231,-36.88153,174.64577,57.21,91.20,-127.35,-1092.91,2597.48,20462.70,10.18,172.60,-123.18
2015-10-18 17:16:02.149,-36.88153,174.64577,50.79,79.10,-129.46,-1125.91,2836.48,20484.70,13.18,182.60,-130.18
2015-10-18 17:16:03.350,-36.88153,174.64577,39.29,70.33,-129.73,-1714.91,2216.48,19486.70,205.18,181.60,-110.18
2015-10-18 17:16:03.638,-36.88153,174.64589,37.92,66.67,-129.58,-978.91,2388,20900.70,44.18,162.60,-58.18
2015-10-18 17:16:05.184,-36.88155,174.64589,42.55,40.50,-144.65,-2126.91,3968.48,20001.70,-42.82,242.60,288.82
2015-10-18 17:16:06.490,-36.88155,174.64589,36.98,31.35,173.39,-3974.91,3507.48,19863.70,-48.82,229.60,468.82
2015-10-18 17:16:06.784,-36.88155,174.64589,33.25,34.27,169.26,-3455.91,3833.48,20664.70,-13.82,235.60,374.82
2015-10-18 17:16:07.219,-36.88155,174.64589,30.16,39.43,167.68,-2311.91,392,20437.70,14.18,188.60,189.82
2015-10-18 17:16:07.476,-36.88155,174.64589,26.21,48.10,167.50,-1844.91,4347,20362.70,5.18,185.60,32.82
2015-10-18 17:16:07.686,-36.88155,174.64589,23.56,52.16,167.68,-2058.91,4173.4,20293.70,1.18,204.60,8.82
2015-10-18 17:16:07.979,-36.88155,174.64589,21.20,54.65,168.06,-2063.91,4067,20761.70,15.18,183.60,13.82
2015-10-18 17:16:08.415,-36.88155,174.64589,18.96,56.58,168.52,-1898.91,4322,20394.70,14.18,188.60,-8.18
2015-10-18 17:16:08.634,-36.88155,174.64589,15.88,58.87,169.54,-1820.91,416,20172.70,13.18,180.60,-47.18
2015-10-18 17:16:08.962,-36.88155,174.64589,14.04,60.14,170.29,-1389.91,416,20415.70,20.18,174.60,-64.18
2015-10-18 17:16:09.202,-36.88155,174.64589,12.02,61.60,171.10,-1350.91,4012,20552.70,7.18,186.60,-96.18
2015-10-18 17:16:09.415,-36.88155,174.64589,10.08,62.70,171.87,-1451.91,404,20375.70,10.18,178.60,-99.18
2015-10-18 17:16:09.838,174.64598,174.64589,8.21,63.54,172.57,-1084.91,387,20016.70,1.18,173.60,-102.18
2015-10-18 17:16:10.119,-36.88177,174.64598,5.25,64.91,173.53,-1269.91,377,20296.70,3.18,178.60,-104.18
2015-10-18 17:16:10.371,-36.88177,174.64598,3.23,65.62,174.12,-1298.91,3631.48,20250.70,17.18,173.60,-107.18
2015-10-18 17:16:10.780,-36.88177,174.64598,1.33,66.20,174.85,-1566.91,3885.48,20491.70,27.18,170.60,-108.18
2015-10-18 17:16:11.018,-36.88177,174.64598,-1.51,66.68,175.67,-1231.91,3675.48,20162.70,11.18,172.60,-105.18
2015-10-18 17:16:11.585,-36.88177,174.64598,-3.57,67.00,176.21,-1374.91,371,20543.70,7.18,176.60,-106.18
2015-10-18 17:16:11.855,-36.88177,174.64598,-7.63,67.56,177.24,-1622.91,367,20141.70,6.18,179.60,-107.18
2015-10-18 17:16:13.016,-36.88177,174.64598,-14.29,68.59,178.61,-1558.91,348,20200.70,-2.82,154.60,-97.18
2015-10-18 17:16:17.945,-36.88246,174.64586,-52.09,87.38,177.65,-1685.91,269,20396.70,36.18,129.60,-90.18
2015-10-18 17:16:18.477,-36.88246,174.64586,-58.11,93.13,176.98,-1710.91,2574.48,20088.70,-34.82,158.60,-77.18
2015-10-18 17:16:19.007,-36.88246,174.64586,-59.86,95.45,176.73,-1520.91,267,20614.70,50.18,167.60,-89.18
2015-10-18 17:16:25.989,-36.883247,174.64575,-58.17,-89.61,48.01,-1244.91,2840.48,20871.70,15.18,176.60,-110.18
2015-10-18 17:16:27.054,-36.883247,174.64575,-49.91,-73.67,45.05,-1606.91,2749.48,20058.70,26.18,175.60,-108.18
2015-10-18 17:16:28.373,-36.883247,174.64575,-40.59,-58.28,44.23,-1249.91,299,20606.70,3.18,162.60,-100.18
2015-10-18 17:16:28.893,-36.883247,174.64575,-37.17,-53.54,44.16,-1389.91,299,20634.70,10.18,155.60,-89.18
2015-10-18 17:16:29.417,-36.883247,174.64575,-35.51,-51.16,44.09,-1244.91,319,20617.70,18.18,171.60,-92.18
2015-10-18 17:16:29.677,-36.883247,174.64575,-32.10,-46.41,43.77,-1552.91,2952,20609.70,4.18,166.60,-77.18
2015-10-18 17:16:30.202,-36.883247,174.64575,-29.43,-43.62,43.49,-1631.91,2744.48,20680.70,-21.82,135.60,-55.18
2015-10-18 17:16:30.489,-36.883247,174.64575,-28.28,-42.70,43.38,-1327.91,3100.48,20257.70,-13.82,140.60,-49.18
2015-10-18 17:16:30.982,-36.883247,174.64575,-27.06,-41.56,43.25,-1565.91,310,20582.70,11.18,159.60,-44.18
2015-10-18 17:16:31.525,-36.883247,174.64575,-23.37,-37.29,41.73,-1780.91,302,20058.70,-6.82,175.60,-11.18
2015-10-18 17:16:31.785,-36.883247,174.64575,-22.31,-35.87,41.16,-2224.91,2991,19739.70,-4.82,187.60,-1.18
2015-10-18 17:16:32.207,-36.883247,174.64575,-21.34,-34.80,40.66,-2333.91,282,20124.70,-17.82,177.60,-0.18
2015-10-18 17:16:32.713,174.64555,174.64575,-19.84,-33.42,40.13,-1863.91,269,20174.70,-8.82,182.60,-15.18
2015-10-18 17:16:34.019,-36.884434,174.64555,-10.12,-26.62,39.19,-1369.91,2444,20416.70,3.18,211.60,-77.18
2015-10-18 17:16:34.560,-36.884434,174.64555,-8.05,-25.88,39.62,-1570.91,227,20397.70,23.18,182.60,-77.18
2015-10-18 17:16:34.937,-36.884434,174.64555,-3.41,-23.68,40.41,-1221.91,1950,20785.70,9.18,210.60,-92.18
2015-10-18 17:16:35.341,-36.884434,174.64555,-0.09,-22.18,41.32,-1226.91,209,20790.70,24.18,195.60,-97.18
2015-10-18 17:16:35.587,-36.884434,174.64555,2.76,-20.82,42.36,-1204.91,240,20443.70,14.18,174.60,-94.18
2015-10-18 17:16:35.858,-36.884434,174.64555,4.56,-20.14,42.80,-1310.91,218,20417.70,-5.82,170.60,-97.18
2015-10-18 17:16:36.123,-36.884434,174.64555,6.30,-20.09,43.53,-1565.91,211,20227.70,29.18,132.60,-97.18
2015-10-18 17:16:36.388,-36.884434,174.64555,8.19,-19.89,44.40,-1489.91,2392.48,20958.70,35.18,169.60,-102.18
2015-10-18 17:16:36.643,-36.884434,174.64555,9.93,-19.73,45.12,-919.91,245,20357.70,11.18,158.60,-103.18
2015-10-18 17:16:37.437,-36.884434,174.64555,13.78,-18.68,47.07,-1225.91,221,20055.70,1.18,145.60,-101.18
2015-10-18 17:16:37.697,-36.884434,174.64555,17.69,-17.36,48.50,-1262.91,2268.48,20824.70,10.18,155.60,-103.18
2015-10-18 17:16:38.100,-36.884434,174.64555,19.79,-16.68,49.14,-781.91,2195.48,19844.70,-16.82,187.60,-106.18
2015-10-18 17:16:38.357,-36.884434,174.64555,22.83,-15.81,50.73,-737.91,172,20415.70,38.18,205.60,-112.18
2015-10-18 17:16:38.891,-36.884434,174.64555,25.12,-14.83,51.62,-1069.91,1524.48,20720.70,-24.82,220.60,-110.18
2015-10-18 17:16:39.273,-36.884434,174.64555,28.53,-13.69,55.11,-1149.91,1802.48,20576.70,65.18,120.60,-106.18
2015-10-18 17:16:39.543,-36.884434,174.64555,30.72,-12.77,56.22,-981.91,162,19861.70,-7.82,146.60,-105.18
2015-10-18 17:16:40.067,174.64507,174.64555,32.67,-11.66,57.60,-744.91,192,20632.70,13.18,196.60,-108.18
2015-10-18 17:16:40.321,-36.885338,174.64507,36.72,-9.16,60.41,-952.91,1976,20625.70,6.18,209.60,-110.18
2015-10-18 17:16:40.602,-36.885338,174.64507,38.99,-7.19,62.91,-1280.91,2041.48,20635.70,34.18,242.60,-118.18
2015-10-18 17:16:40.991,-36.885338,174.64507,40.88,-5.49,65.48,-1375.91,2228.48,20727.70,49.18,196.60,-112.18
2015-10-18 17:16:41.247,-36.885338,174.64507,43.42,-2.92,68.91,-1054.91,210,20395.70,7.18,171.60,-115.18
2015-10-18 17:16:41.644,-36.885338,174.64507,45.05,-1.40,70.91,-1535.91,2188.48,19923.70,21.18,161.60,-120.18
2015-10-18 17:16:41.898,-36.885338,174.64507,47.85,0.95,74.40,-1000.91,2546.48,21017.70,45.18,168.60,-146.18
2015-10-18 17:16:42.166,-36.885338,174.64507,49.75,2.11,76.48,-1059.91,2502.48,19793.70,18.18,137.60,-150.18
2015-10-18 17:16:42.429,-36.885338,174.64507,51.86,3.96,79.14,-803.91,249,20167.70,21.18,164.60,-162.18
2015-10-18 17:16:42.828,-36.885338,174.64507,53.92,6.48,82.66,-1003.91,2652.48,20431.70,22.18,200.60,-162.18
2015-10-18 17:16:43.087,-36.885338,174.64507,56.22,10.69,88.53,-1083.91,2715.48,20280.70,39.18,191.60,-134.18
2015-10-18 17:16:43.466,-36.885338,174.64507,57.12,14.36,92.61,-1265.91,2325.48,20166.70,-7.82,197.60,-108.18
2015-10-18 17:16:44.000,-36.885338,174.64507,57.58,19.06,98.39,-1570.91,2043.48,20252.70,-18.82,185.60,-79.18
2015-10-18 17:16:44.613,-36.885338,174.64507,57.30,24.48,106.20,-1671.91,174,20408.70,20.18,189.60,-74.18
2015-10-18 17:16:44.666,-36.885338,174.64507,56.73,28.24,111.41,-1879.91,1064.48,20559.70,-12.82,163.60,-72.18
2015-10-18 17:16:45.059,-36.88575,174.64484,56.28,30.59,114.93,-1537.91,119,20298.70,19.18,168.60,-76.18
2015-10-18 17:16:45.363,-36.88575,174.64484,55.44,34.12,119.99,-1577.91,1638.48,20326.70,26.18,172.60,-78.18
2015-10-18 17:16:45.711,-36.88575,174.64484,54.71,36.80,123.61,-1698.91,195,20494.70,18.18,178.60,-77.18
2015-10-18 17:16:45.976,-36.88575,174.64484,53.41,39.85,128.43,-1763.91,250,20484.70,20.18,174.60,-79.18
2015-10-18 17:16:46.372,-36.88575,174.64484,52.33,41.39,131.24,-1646.91,242,20450.70,-2.82,183.60,-78.18
2015-10-18 17:16:46.777,-36.88575,174.64484,50.35,43.19,135.45,-1661.91,250,20509.70,27.18,191.60,-63.18
2015-10-18 17:16:47.039,-36.88575,174.64484,48.07,44.67,138.29,-1562.91,2191.48,20846.70,-50.82,202.60,-48.18
2015-10-18 17:16:47.428,-36.88575,174.64484,46.32,45.38,140.21,-2123.91,170,20112.70,27.18,174.60,-36.18
2015-10-18 17:16:47.686,-36.88575,174.64484,43.42,46.13,142.60,-1437.91,2145,20196.70,9.18,164.60,-25.18
2015-10-18 17:16:48.073,-36.88575,174.64484,41.36,46.52,144.14,-1576.91,209,20553.70,11.18,191.60,-30.18
2015-10-18 17:16:48.477,-36.88575,174.64484,38.38,47.96,145.76,-1499.91,153,20783.70,-0.82,172.60,-21.18
2015-10-18 17:16:48.739,-36.88575,174.64484,35.84,48.66,147.82,-1365.91,115,20325.70,24.18,162.60,-50.18
2015-10-18 17:16:49.007,-36.88575,174.64484,34.08,49.11,149.47,-1628.91,203,20641.70,31.18,177.60,-57.18
2015-10-18 17:16:49.424,-36.88575,174.64484,32.59,49.46,150.91,-1395.91,255,20341.70,17.18,169.60,-74.18
2015-10-18 17:16:49.653,174.64468,174.64484,30.43,50.62,153.16,-1495.91,268,20504.70,21.18,174.60,-86.18
2015-10-18 17:16:49.930,-36.885986,174.64468,28.95,51.69,154.48,-1482.91,2574,20495.70,7.18,165.60,-91.18
2015-10-18 17:16:50.182,-36.885986,174.64468,27.47,52.72,155.74,-1300.91,3079,20172.70,4.18,174.60,-96.18
2015-10-18 17:16:50.443,-36.885986,174.64468,25.91,53.56,157.00,-1318.91,346,20339.70,11.18,169.60,-94.18
2015-10-18 17:16:50.829,-36.885986,174.64468,24.29,54.35,158.07,-1378.91,347,20429.70,-5.82,176.60,-98.18
2015-10-18 17:16:51.099,-36.885986,174.64468,21.65,55.25,159.78,-1369.91,3304,20249.70,7.18,182.60,-92.18
2015-10-18 17:16:51.498,-36.885986,174.64468,20.03,55.51,161.01,-1258.91,342,20359.70,20.18,167.60,-90.18
2015-10-18 17:16:51.756,-36.885986,174.64468,17.33,54.59,162.47,-1446.91,278,20513.70,-2.82,192.60,-95.18
2015-10-18 17:16:52.274,-36.885986,174.64468,15.83,54.27,163.42,-1282.91,2503.48,20381.70,13.18,161.60,-100.18
2015-10-18 17:16:52.674,-36.885986,174.64468,12.47,54.82,165.27,-1460.91,203,20399.70,3.18,165.60,-105.18
2015-10-18 17:16:52.940,-36.885986,174.64468,9.98,55.90,166.49,-1192.91,174,20240.70,9.18,171.60,-107.18
2015-10-18 17:16:53.323,-36.885986,174.64468,8.32,56.76,167.46,-1450.91,2742.48,20326.70,26.18,168.60,-105.18
2015-10-18 17:16:53.590,-36.885986,174.64468,5.72,57.97,168.48,-1306.91,254,20601.70,3.18,179.60,-112.18
2015-10-18 17:16:53.849,-36.885986,174.64468,3.92,58.43,169.08,-1219.91,225,20510.70,4.18,174.60,-105.18
2015-10-18 17:16:54.257,-36.885986,174.64468,2.25,58.66,169.69,-1340.91,169,20438.70,4.18,163.60,-106.18
2015-10-18 17:16:54.667,-36.885986,174.64468,-0.42,58.27,170.58,-1232.91,183,20576.70,6.18,173.60,-107.18
2015-10-18 17:17:01.361,-36.885986,174.64468,-41.06,93.79,160.80,81.09,4089.4,19427.70,3.18,153.60,-264.18
2015-10-18 17:17:01.624,-36.885986,174.64468,-42.11,100.56,153.79,700.09,338,20753.70,-49.82,222.60,-286.18
2015-10-18 17:17:02.274,-36.885986,174.64468,-41.58,108.72,146.27,36.09,3546,20116.70,-7.82,142.60,-293.18
2015-10-18 17:17:02.546,-36.885986,174.64468,-41.17,111.91,143.55,569.09,3153,20421.70,-8.82,175.60,-262.18
2015-10-18 17:17:02.798,-36.885986,174.64468,-40.56,113.63,141.41,-444.91,301,20434.70,19.18,152.60,-239.18
2015-10-18 17:17:03.462,-36.885986,174.64468,-40.01,115.80,137.11,-488.91,311,20217.70,-6.82,155.60,-179.18
2015-10-18 17:17:07.155,-36.886765,174.64441,-46.75,146.52,114.32,-1470.91,2611.48,20256.70,-7.82,187.60,-104.18
2015-10-18 17:17:08.465,-36.886765,174.64441,-48.52,179.82,104.46,-1608.91,2758.48,20262.70,-12.82,196.60,-76.18
2015-10-18 17:17:14.545,-36.886765,174.64441,-27.08,-49.62,77.59,-1648.91,216,20181.70,1.18,170.60,-114.18
2015-10-18 17:17:17.837,-36.886765,174.64441,-11.66,-21.52,77.56,-1336.91,1840.48,20482.70,-5.82,199.60,-106.18
2015-10-18 17:17:18.630,-36.886765,174.64441,-9.28,-19.16,78.56,-1341.91,1488.48,20676.70,11.18,175.60,-104.18
2015-10-18 17:17:19.040,-36.886765,174.64441,-7.00,-16.71,79.31,-1418.91,1962.48,20843.70,31.18,162.60,-104.18
2015-10-18 17:17:19.283,-36.886765,174.64441,-5.33,-14.89,79.93,-1521.91,2365.48,20407.70,12.18,178.60,-105.18
2015-10-18 17:17:19.551,-36.886765,174.64441,-4.20,-13.68,80.23,-1514.91,2498.48,20525.70,-6.82,181.60,-100.18
2015-10-18 17:17:20.077,-36.886765,174.64441,-3.09,-12.47,80.71,-1475.91,229,20341.70,8.18,168.60,-102.18
2015-10-18 17:17:20.340,-36.886765,174.64441,-0.86,-10.03,81.98,-1277.91,2046.48,20790.70,23.18,193.60,-104.18
2015-10-18 17:17:20.739,-36.886765,174.64441,0.13,-9.03,82.85,-1518.91,2064.48,20488.70,17.18,172.60,-104.18
2015-10-18 17:17:20.991,-36.886765,174.64441,1.52,-7.50,83.51,-1554.91,2055.48,20230.70,-6.82,173.60,-100.18
2015-10-18 17:17:21.254,-36.886765,174.64441,2.49,-6.33,84.33,-1729.91,1817.48,21051.70,14.18,194.60,-104.18
2015-10-18 17:17:21.525,-36.886765,174.64441,3.41,-5.05,85.03,-1507.91,185,20046.70,7.18,170.60,-102.18
2015-10-18 17:17:21.765,-36.886765,174.64441,4.29,-4.10,85.63,-1474.91,170,20455.70,6.18,158.60,-101.18
2015-10-18 17:17:22.039,-36.886765,174.64441,5.16,-3.21,86.24,-1460.91,1239.48,20800.70,16.18,168.60,-102.18
2015-10-18 17:17:22.293,-36.886765,174.64441,6.02,-2.03,87.20,-1488.91,1370.48,20576.70,27.18,184.60,-102.18
2015-10-18 17:17:22.594,-36.886765,174.64441,6.84,-0.99,87.97,-1689.91,1383.48,20447.70,-6.82,170.60,-102.18
2015-10-18 17:17:22.810,-36.886765,174.64441,7.62,0.05,88.93,-1398.91,1253.48,20137.70,29.18,161.60,-101.18
2015-10-18 17:17:23.067,-36.886765,174.64441,8.39,1.27,89.88,-1505.91,1303.48,20502.70,13.18,182.60,-101.18
2015-10-18 17:17:23.331,-36.886765,174.64441,9.11,1.99,90.73,-1634.91,1142.48,20568.70,13.18,163.60,-103.18
2015-10-18 17:17:23.600,174.64456,174.64441,9.78,3.25,91.97,-1704.91,1697.48,20494.70,36.18,166.60,-100.18
2015-10-18 17:17:23.861,-36.88878,174.64456,10.43,4.62,92.85,-1234.91,1680.48,20734.70,-5.82,180.60,-101.18
2015-10-18 17:17:24.127,-36.88878,174.64456,11.00,5.82,93.65,-1704.91,1328.48,20546.70,-10.82,174.60,-98.18
2015-10-18 17:17:24.401,-36.88878,174.64456,11.55,7.09,94.73,-1420.91,143,20402.70,19.18,175.60,-98.18
2015-10-18 17:17:24.663,-36.88878,174.64456,12.04,8.59,95.84,-1367.91,2298.48,20503.70,10.18,188.60,-100.18
2015-10-18 17:17:24.920,-36.88878,174.64456,12.39,10.52,96.98,-1552.91,213,20330.70,17.18,174.60,-92.18
2015-10-18 17:17:25.297,-36.88878,174.64456,12.62,12.65,98.02,-1481.91,250,20632.70,-3.82,183.60,-87.18
2015-10-18 17:17:25.690,-36.88878,174.64456,12.55,15.54,99.82,-2084.91,265,20420.70,19.18,178.60,-72.18
2015-10-18 17:17:26.094,-36.88878,174.64456,12.47,18.24,101.95,-1705.91,341,20359.70,47.18,184.60,-76.18
2015-10-18 17:17:26.355,-36.88878,174.64456,13.10,21.00,103.27,-1407.91,3600.48,20398.70,-18.82,169.60,-112.18
2015-10-18 17:17:26.759,-36.88878,174.64456,14.28,22.41,104.70,-2112.91,3898.48,20688.70,14.18,175.60,-151.18
2015-10-18 17:17:27.266,-36.88878,174.64456,16.95,24.56,106.83,-660.91,399,20377.70,70.18,139.60,-210.18
2015-10-18 17:17:27.554,-36.88878,174.64456,20.04,28.42,109.39,-652.91,387,20688.70,21.18,190.60,-190.18
2015-10-18 17:17:28.195,-36.88878,174.64456,20.44,33.05,113.13,-1572.91,386,20227.70,41.18,184.60,-97.18
2015-10-18 17:17:28.593,-36.88878,174.6446,20.12,34.13,114.40,-1704.91,3869,20331.70,2.18,178.60,-88.18
2015-10-18 17:17:28.836,-36.889183,174.6446,19.34,35.56,116.28,-1863.91,4194,20291.70,1.18,187.60,-82.18
2015-10-18 17:17:29.117,-36.889183,174.6446,18.74,36.39,117.58,-1514.91,3436,20461.70,4.18,192.60,-83.18
2015-10-18 17:17:29.403,-36.889183,174.6446,18.05,37.43,119.26,-1822.91,363,20332.70,53.18,182.60,-78.18
2015-10-18 17:17:29.642,-36.889183,174.6446,17.39,38.34,120.14,-1718.91,3302.48,20626.70,-15.82,159.60,-77.18
2015-10-18 17:17:29.901,-36.889183,174.6446,16.71,39.24,121.40,-1536.91,3287,20532.70,5.18,176.60,-79.18
2015-10-18 17:17:30.555,-36.889183,174.6446,15.08,41.94,124.27,-1418.91,299,20558.70,12.18,191.60,-90.18
2015-10-18 17:17:31.103,-36.889183,174.6446,14.35,43.21,125.55,-1589.91,308,20212.70,24.18,164.60,-88.18
2015-10-18 17:17:31.347,-36.889183,174.6446,12.52,46.32,127.53,-1754.91,280,20646.70,16.18,196.60,-90.18
2015-10-18 17:17:31.748,-36.889183,174.6446,11.44,46.58,128.89,-1827.91,298,21861.70,41.18,184.60,-88.18
2015-10-18 17:17:32.145,-36.889183,174.6446,10.06,48.40,131.03,-1710.91,317,21075.70,35.18,183.60,-95.18
2015-10-18 17:17:32.410,-36.889183,174.6446,8.60,49.71,132.57,-1730.91,298,20320.70,18.18,184.60,-88.18
2015-10-18 17:17:32.801,-36.889183,174.6446,7.67,50.40,133.13,-2153.91,270,20385.70,-4.82,148.60,-79.18
2015-10-18 17:17:33.055,-36.889183,174.6446,5.98,51.82,135.03,-1933.91,287,21133.70,49.18,174.60,-79.18
2015-10-18 17:17:33.318,-36.889183,174.6446,5.18,52.39,136.01,-1815.91,299,20241.70,13.18,138.60,-80.18
2015-10-18 17:17:33.710,-36.889183,174.6446,4.24,53.35,136.76,-1722.91,295,20341.70,16.18,162.60,-87.18
2015-10-18 17:17:33.969,-36.889183,174.6446,2.41,54.90,137.61,-1698.91,313,20609.70,-0.82,194.60,-89.18
2015-10-18 17:17:34.358,-36.889183,174.6446,1.34,55.70,138.62,-1725.91,306,20832.70,46.18,161.60,-90.18
2015-10-18 17:17:35.019,-36.889904,174.6447,-2.19,58.84,140.88,-1305.91,303,20700.70,59.18,176.60,-92.18
2015-10-18 17:17:36.474,-36.889904,174.6447,-7.48,62.97,143.05,-1157.91,3035.48,20563.70,39.18,165.60,-113.18
2015-10-18 17:17:36.741,-36.889904,174.6447,-9.10,65.81,143.95,-1310.91,294,20747.70,8.18,140.60,-134.18
2015-10-18 17:17:37.649,-36.889904,174.6447,-11.00,68.56,144.76,-1051.91,3137.48,19606.70,21.18,153.60,-133.18
2015-10-18 17:17:40.286,-36.890556,174.64471,-24.16,82.27,145.18,-877.91,2881.48,21036.70,-35.82,198.60,-112.18
2015-10-18 17:17:41.066,-36.890556,174.64471,-27.07,84.91,144.58,-1281.91,2920.48,20494.70,-18.82,172.60,-106.18
2015-10-18 17:17:42.397,-36.890556,174.64471,-33.13,92.28,142.14,-1733.91,3172.48,20283.70,14.18,192.60,-105.18
2015-10-18 17:17:43.444,-36.890556,174.64471,-37.42,101.08,139.22,-1393.91,3522.48,20553.70,-28.82,179.60,-102.18
2015-10-18 17:17:51.904,-36.8912,174.64479,-41.03,-105.26,87.40,-1307.91,226,20317.70,23.18,170.60,-98.18
2015-10-18 17:17:52.153,-36.8912,174.64479,-40.21,-99.88,86.13,-1568.91,2414.48,20070.70,-8.82,176.60,-100.18
2015-10-18 17:17:53.218,-36.8912,174.64479,-37.58,-84.86,83.17,-1549.91,2328,20250.70,2.18,158.60,-99.18
2015-10-18 17:17:53.470,-36.8912,174.64479,-35.74,-76.17,81.51,-1601.91,225,20548.70,19.18,167.60,-97.18
2015-10-18 17:17:55.454,-36.8912,174.64479,-26.87,-47.68,76.95,-1418.91,2138.48,20693.70,15.18,176.60,-105.18
2015-10-18 17:17:55.706,174.6449,174.64479,-25.60,-44.62,76.65,-1739.91,2105.48,20417.70,15.18,183.60,-107.18
2015-10-18 17:17:56.491,-36.892494,174.6449,-21.92,-37.06,75.77,-1676.91,1623.48,20607.70,-11.82,148.60,-101.18
2015-10-18 17:17:57.570,-36.892494,174.6449,-17.32,-29.68,75.86,-1247.91,1929.48,21174.70,22.18,189.60,-108.18
2015-10-18 17:17:59.525,-36.892494,174.6449,-7.01,-17.41,78.08,-1530.91,157,20526.70,9.18,152.60,-109.18
2015-10-18 17:18:00.056,-36.892494,174.6449,-5.79,-16.10,78.40,-1299.91,159,20571.70,6.18,164.60,-111.18
2015-10-18 17:18:00.302,-36.892494,174.6449,-3.30,-13.00,79.38,-1042.91,919.48,20702.70,21.18,178.60,-108.18
2015-10-18 17:18:00.971,-36.892998,174.64494,-0.30,-9.59,80.86,-1415.91,968.48,20718.70,11.18,170.60,-109.18
2015-10-18 17:18:01.374,-36.892998,174.64494,0.89,-8.11,81.71,-1319.91,1109.48,20704.70,15.18,184.60,-109.18
2015-10-18 17:18:01.627,-36.892998,174.64494,2.58,-6.32,82.75,-1254.91,985.48,20547.70,21.18,175.60,-111.18
2015-10-18 17:18:01.881,-36.892998,174.64494,3.63,-5.15,83.54,-1297.91,1983.48,20273.70,11.18,162.60,-107.18
2015-10-18 17:18:02.153,-36.892998,174.64494,4.71,-3.84,84.50,-1346.91,1804.48,20492.70,23.18,165.60,-114.18
2015-10-18 17:18:02.408,-36.892998,174.64494,5.87,-2.26,85.36,-1349.91,1574.48,20788.70,13.18,174.60,-117.18
2015-10-18 17:18:02.690,-36.892998,174.64494,7.01,-0.86,86.29,-1438.91,1381.48,20454.70,14.18,171.60,-120.18
2015-10-18 17:18:02.935,-36.892998,174.64494,8.09,0.40,87.04,-1360.91,1319.48,20691.70,-1.82,181.60,-115.18
2015-10-18 17:18:03.202,-36.892998,174.64494,9.10,1.52,87.99,-1288.91,1449.48,20601.70,13.18,162.60,-111.18
2015-10-18 17:18:03.462,-36.892998,174.64494,10.09,2.77,88.94,-1191.91,153,20449.70,4.18,175.60,-116.18
2015-10-18 17:18:03.703,-36.892998,174.64494,11.08,4.17,89.88,-1293.91,174,20427.70,7.18,172.60,-115.18
2015-10-18 17:18:04.112,-36.892998,174.64494,11.98,5.60,90.96,-1341.91,1820.48,20436.70,13.18,177.60,-113.18
2015-10-18 17:18:04.509,-36.892998,174.64494,13.17,7.99,92.67,-1361.91,1937.48,20823.70,14.18,186.60,-108.18
2015-10-18 17:18:04.767,-36.892998,174.64494,14.28,10.25,94.48,-1493.91,2000.48,20313.70,20.18,177.60,-111.18
2015-10-18 17:18:05.168,-36.892998,174.64494,14.85,11.90,95.90,-1618.91,1913.48,20499.70,25.18,186.60,-105.18
2015-10-18 17:18:05.541,-36.892998,174.64494,15.55,13.85,97.65,-1535.91,1922,20456.70,0.18,168.60,-98.18
2015-10-18 17:18:05.823,-36.892998,174.64494,16.10,15.72,99.39,-1478.91,1581,20531.70,9.18,173.60,-99.18
2015-10-18 17:18:06.328,-36.892998,174.64494,16.73,17.94,101.62,-1493.91,159,20533.70,0.18,161.60,-100.18
2015-10-18 17:18:06.728,174.64499,174.64494,16.95,19.45,102.83,-1581.91,175,20511.70,13.18,177.60,-99.18
2015-10-18 17:18:07.128,-36.89328,174.64499,17.26,21.61,104.64,-1533.91,1765,20430.70,4.18,168.60,-99.18
2015-10-18 17:18:07.522,-36.89328,174.64499,17.47,23.85,106.66,-1578.91,2031.48,20455.70,15.18,177.60,-103.18
2015-10-18 17:18:08.168,-36.89328,174.64499,17.56,28.17,110.56,-1451.91,1804.48,20576.70,11.18,173.60,-102.18
2015-10-18 17:18:08.440,-36.89328,174.64499,17.51,29.62,111.88,-1512.91,184,20386.70,4.18,176.60,-103.18
2015-10-18 17:18:09.222,-36.89328,174.64499,17.08,33.79,115.77,-1578.91,1643.48,20433.70,23.18,176.60,-103.18
2015-10-18 17:18:09.763,-36.89328,174.64499,16.84,35.08,117.00,-1526.91,185,20567.70,3.18,172.60,-102.18
2015-10-18 17:18:10.821,-36.89328,174.64499,15.47,40.00,121.97,-1611.91,1961.48,20379.70,12.18,174.60,-103.18
2015-10-18 17:18:11.063,-36.89328,174.64499,14.53,42.38,124.34,-1584.91,2309.48,20352.70,10.18,172.60,-103.18
2015-10-18 17:18:11.605,-36.89328,174.64499,13.99,43.51,125.52,-1645.91,2788.48,20527.70,21.18,174.60,-104.18
2015-10-18 17:18:12.657,174.64499,174.64499,10.71,49.11,130.89,-1620.91,2767.48,20519.70,12.18,174.60,-103.18
2015-10-18 17:18:12.936,-36.89332,174.64499,9.94,50.14,131.84,-1562.91,2124.48,20404.70,-5.82,173.60,-102.18
2015-10-18 17:18:13.327,-36.89332,174.64499,9.14,51.16,132.80,-1506.91,2782.48,20434.70,-6.82,172.60,-103.18
2015-10-18 17:18:13.704,-36.89332,174.64499,7.87,52.69,134.17,-1618.91,2810.48,20462.70,11.18,174.60,-103.18
2015-10-18 17:18:14.109,-36.89332,174.64499,6.55,54.16,135.45,-1592.91,2332.48,20500.70,22.18,174.60,-104.18
2015-10-18 17:18:14.494,-36.89332,174.64499,5.15,55.64,136.68,-1558.91,2249.48,20407.70,-4.82,173.60,-102.18
2015-10-18 17:18:14.762,-36.89332,174.64499,3.70,57.07,137.84,-1474.91,2475.48,20416.70,22.18,174.60,-104.18
2015-10-18 17:18:15.147,-36.89332,174.64499,2.72,58.02,138.53,-1623.91,2619.48,20393.70,22.18,174.60,-105.18
2015-10-18 17:18:15.561,-36.89332,174.64499,1.17,59.50,139.57,-1596.91,2475.48,20492.70,22.18,175.60,-104.18
2015-10-18 17:18:16.355,-36.89332,174.64499,-2.06,62.40,141.31,-1533.91,2326.48,20527.70,-6.82,172.60,-102.18
2015-10-18 17:18:16.601,-36.89332,174.64499,-3.72,63.76,142.09,-1615.91,2850.48,20401.70,19.18,176.60,-106.18
2015-10-18 17:18:17.381,-36.89332,174.64499,-6.01,65.65,143.10,-1501.91,2862.48,20486.70,-0.82,174.60,-102.18
2015-10-18 17:18:17.655,-36.89332,174.64499,-8.32,67.67,143.82,-1538.91,2561.48,20449.70,-3.82,170.60,-102.18
2015-10-18 17:18:17.921,-36.89332,174.64499,-9.50,68.74,144.12,-1544.91,217,20553.70,2.18,172.60,-103.18
2015-10-18 17:18:22.267,-36.89332,174.64499,-28.36,88.45,144.40,-1542.91,302,20582.70,5.18,174.60,-104.18
2015-10-18 17:18:23.981,-36.89334,174.645,-36.77,100.25,140.64,-1600.91,386,20474.70,13.18,164.60,-96.18
2015-10-18 17:18:25.286,-36.89334,174.645,-41.94,105.10,136.61,-1586.91,3590.48,20428.70,-10.82,169.60,-88.18
2015-10-18 17:18:27.018,-36.89334,174.645,-48.86,117.76,128.36,-1649.91,287,20140.70,-0.82,188.60,-87.18
2015-10-18 17:18:27.918,-36.89334,174.645,-52.17,129.31,121.29,-1886.91,295,20168.70,-2.82,167.60,-92.18
2015-10-18 17:18:35.046,-36.894073,174.64507,-37.29,-77.09,76.14,-1404.91,3251,20345.70,9.18,186.60,-97.18
2015-10-18 17:18:35.318,-36.894073,174.64507,-36.27,-71.20,75.46,-1445.91,3257,20589.70,1.18,176.60,-95.18
2015-10-18 17:18:36.763,-36.894073,174.64507,-32.01,-54.82,73.72,-1428.91,315,20513.70,23.18,156.60,-95.18
2015-10-18 17:18:44.901,-36.894073,174.64507,31.87,10.92,94.15,-809.91,291,20863.70,-3.82,168.60,-155.18
2015-10-18 17:18:45.163,-36.894073,174.64507,33.75,12.03,96.18,-805.91,283,19638.70,45.18,123.60,-185.18
2015-10-18 17:18:45.412,-36.894073,174.64507,35.56,13.86,98.02,-295.91,296,19607.70,-2.82,160.60,-185.18
2015-10-18 17:18:45.687,-36.894073,174.64507,37.29,15.48,99.68,-1043.91,2786.48,20641.70,-39.82,145.60,-179.18
2015-10-18 17:18:45.951,-36.894073,174.64507,38.98,17.67,101.58,-339.91,2411.48,20069.70,-32.82,160.60,-187.18
2015-10-18 17:18:46.224,-36.894073,174.64507,40.48,20.76,104.53,-712.91,242,20211.70,-4.82,215.60,-191.18
2015-10-18 17:18:46.489,-36.894073,174.64507,41.87,23.23,107.60,-802.91,239,20990.70,30.18,179.60,-183.18
2015-10-18 17:18:47.039,-36.894073,174.64507,43.69,27.96,112.90,-943.91,2417.48,20235.70,-19.82,185.60,-151.18
2015-10-18 17:18:47.257,-36.894073,174.64507,44.19,30.34,116.15,-933.91,230,20942.70,37.18,169.60,-149.18
2015-10-18 17:18:47.531,-36.894073,174.64507,44.83,32.11,118.69,-786.91,271,19948.70,-6.82,139.60,-149.18
2015-10-18 17:18:47.918,-36.894073,174.64507,45.24,34.44,121.28,-1049.91,2721.48,20817.70,-21.82,162.60,-146.18
2015-10-18 17:18:48.330,-36.894073,174.64507,45.76,38.06,125.86,-1163.91,2485.48,20541.70,36.18,154.60,-151.18
2015-10-18 17:18:48.572,-36.894073,174.64507,45.77,42.41,130.66,-677.91,250,20599.70,10.18,163.60,-149.18
2015-10-18 17:18:48.831,-36.894073,174.64507,45.60,45.13,133.75,-788.91,245,19963.70,16.18,157.60,-143.18
2015-10-18 17:18:49.369,-36.894073,174.64507,45.22,47.82,136.69,-962.91,260,20256.70,20.18,162.60,-140.18
2015-10-18 17:18:49.642,174.64578,174.64507,43.42,53.05,142.29,-1384.91,2632.48,20554.70,17.18,178.60,-119.18
2015-10-18 17:18:50.415,-36.895634,174.64578,38.84,59.05,149.53,-1467.91,2536.48,19965.70,18.18,186.60,-100.18
2015-10-18 17:18:50.686,-36.895634,174.64578,37.52,60.34,151.42,-1761.91,2505,20211.70,8.18,154.60,-99.18
2015-10-18 17:18:51.473,-36.895634,174.64578,34.63,63.47,155.01,-1124.91,2339.48,20499.70,-25.82,175.60,-106.18
2015-10-18 17:18:51.729,-36.895634,174.64578,31.04,66.88,158.88,-1300.91,2504.48,20427.70,20.18,189.60,-115.18
2015-10-18 17:18:52.008,-36.895634,174.64578,29.13,68.32,161.12,-1545.91,2333.48,21188.70,46.18,195.60,-120.18
2015-10-18 17:18:52.797,-36.895634,174.64578,24.92,70.33,166.41,-1478.91,2578.48,21246.70,25.18,176.60,-124.18
2015-10-18 17:18:53.055,-36.895634,174.64578,23.73,68.03,168.16,-1569.91,2308.48,20656.70,43.18,138.60,-115.18
2015-10-18 17:18:53.321,-36.895634,174.64578,22.12,67.43,169.40,-1214.91,2184.48,20668.70,12.18,161.60,-107.18
2015-10-18 17:18:53.860,-36.895634,174.64578,20.36,66.77,170.63,-1649.91,2357.48,20638.70,15.18,166.60,-108.18
2015-10-18 17:18:54.103,-36.895634,174.64578,16.52,68.07,172.97,-1291.91,2595.48,20994.70,20.18,178.60,-109.18
2015-10-18 17:18:55.187,-36.895634,174.64578,8.63,73.06,176.52,-1349.91,254,20166.70,4.18,185.60,-112.18
2015-10-18 17:18:55.561,-36.895634,174.64578,6.56,73.41,177.35,-1358.91,259,20485.70,8.18,179.60,-105.18
2015-10-18 17:18:55.819,-36.895634,174.64578,3.40,73.47,178.49,-1515.91,295,20424.70,23.18,181.60,-98.18
2015-10-18 17:18:56.218,-36.895634,174.64578,1.59,73.53,179.12,-1328.91,3121,20118.70,6.18,165.60,-98.18
2015-10-18 17:18:56.466,-36.895634,174.64578,-1.59,73.86,-179.94,-1248.91,3200.48,20020.70,-4.82,190.60,-107.18
2015-10-18 17:18:57.002,-36.895634,174.64578,-5.60,74.49,-178.60,-1604.91,3160.48,20266.70,31.18,168.60,-109.18
2015-10-18 17:18:57.280,-36.895634,174.64578,-7.84,75.07,-178.23,-1290.91,2978.48,20178.70,-7.82,190.60,-108.18
2015-10-18 17:19:05.466,-36.896416,174.64694,-69.62,108.95,178.32,-1204.91,2501.48,20271.70,-9.82,181.60,-110.18
2015-10-18 17:19:07.849,-36.896793,174.6475,-83.41,-152.52,90.37,-1831.91,2652.48,20286.70,42.18,171.60,-104.18
2015-10-18 17:19:08.102,-36.896793,174.6475,-82.58,-137.08,75.73,-1635.91,2608.48,20639.70,-22.82,160.60,-94.18
2015-10-18 17:19:10.467,-36.896793,174.6475,-65.65,-86.56,38.31,-1418.91,2613.48,20138.70,-19.82,187.60,-112.18
2015-10-18 17:19:11.791,-36.897152,174.64806,-55.06,-73.40,35.98,-1353.91,2223.48,20120.70,14.18,175.60,-102.18
2015-10-18 17:19:13.111,-36.897152,174.64806,-48.81,-64.90,35.44,-1402.91,212,20555.70,12.18,174.60,-98.18
2015-10-18 17:19:13.759,-36.897152,174.64806,-39.22,-54.84,35.14,-1583.91,189,20499.70,15.18,171.60,-99.18
2015-10-18 17:19:14.689,-36.897152,174.64806,-33.66,-50.75,35.93,-1528.91,200,20239.70,15.18,163.60,-99.18
2015-10-18 17:19:16.267,-36.897152,174.64806,-20.29,-46.87,38.21,-1475.91,1835.48,20618.70,15.18,156.60,-106.18
2015-10-18 17:19:17.067,-36.897552,174.64865,-14.90,-44.43,39.10,-1400.91,1649.48,20466.70,-1.82,180.60,-110.18
2015-10-18 17:19:17.315,-36.897552,174.64865,-11.75,-43.01,39.81,-1268.91,1265.48,20331.70,28.18,170.60,-106.18
2015-10-18 17:19:17.717,-36.897552,174.64865,-9.61,-41.98,40.30,-1006.91,110,20608.70,2.18,178.60,-106.18
2015-10-18 17:19:18.378,-36.897552,174.64865,-3.93,-39.50,41.92,-1335.91,110,20672.70,5.18,178.60,-104.18
2015-10-18 17:19:18.893,-36.897552,174.64865,-2.02,-38.46,42.41,-1528.91,961.48,20280.70,-7.82,170.60,-101.18
2015-10-18 17:19:19.306,-36.897552,174.64865,2.08,-36.72,43.82,-1299.91,2007.48,20732.70,25.18,185.60,-100.18
2015-10-18 17:19:19.545,-36.897552,174.64865,4.77,-35.69,44.99,-1243.91,2326.48,20458.70,17.18,164.60,-100.18
2015-10-18 17:19:19.951,-36.897552,174.64865,6.63,-35.12,45.53,-1276.91,2136.48,20526.70,-6.82,173.60,-103.18
2015-10-18 17:19:20.207,-36.897552,174.64865,9.45,-34.13,46.86,-1337.91,234,20302.70,6.18,173.60,-106.18
2015-10-18 17:19:20.864,-36.897552,174.64865,15.33,-32.14,48.97,-596.91,2358,20215.70,0.18,185.60,-144.18
2015-10-18 17:19:21.115,-36.897552,174.64865,17.84,-30.99,49.90,-619.91,2254,20780.70,5.18,187.60,-153.18
2015-10-18 17:19:21.393,-36.897552,174.64865,20.13,-30.60,50.82,-876.91,1828,20813.70,7.18,158.60,-150.18
2015-10-18 17:19:22.314,-36.897896,174.64919,28.14,-27.98,54.07,-1173.91,947.48,20884.70,55.18,172.60,-125.18
2015-10-18 17:19:22.969,-36.897896,174.64919,32.35,-24.78,57.76,-1766.91,103,20963.70,25.18,157.60,-85.18
2015-10-18 17:19:23.375,-36.897896,174.64919,33.76,-23.18,58.89,-874.91,103,20705.70,-24.82,172.60,-89.18
2015-10-18 17:19:24.283,-36.897896,174.64919,37.29,-15.48,65.20,-1537.91,121,20702.70,45.18,182.60,-54.18
2015-10-18 17:19:24.550,-36.897896,174.64919,38.38,-13.94,69.17,-1701.91,2206,20079.70,3.18,170.60,-47.18
2015-10-18 17:19:24.816,-36.897896,174.64919,39.18,-14.19,71.03,-1366.91,1373,20444.70,8.18,149.60,-71.18
2015-10-18 17:19:25.074,-36.897896,174.64919,40.46,-13.29,73.51,-604.91,980,20953.70,65.18,154.60,-105.18
2015-10-18 17:19:25.473,-36.897896,174.64919,42.49,-11.29,74.68,-269.91,1308.48,20546.70,-43.82,157.60,-178.18
2015-10-18 17:19:25.730,-36.897896,174.64919,46.47,-10.30,77.93,-193.91,178,20403.70,47.18,174.60,-201.18
2015-10-18 17:19:26.129,-36.897896,174.64919,49.37,-10.50,79.62,-258.91,1170.48,20762.70,-10.82,136.60,-225.18
2015-10-18 17:19:26.390,-36.897896,174.64919,54.39,-8.69,83.62,-38.91,814.4,20627.70,0.18,189.60,-256.18
2015-10-18 17:19:26.633,-36.897896,174.64919,57.88,-6.36,86.90,-154.91,1280,20209.70,2.18,181.60,-266.18
2015-10-18 17:19:26.908,-36.897896,174.64919,61.52,-2.32,90.75,-164.91,140,20503.70,-7.82,192.60,-289.18
2015-10-18 17:19:27.168,-36.897896,174.64919,65.26,3.37,95.91,38.09,1847,21985.70,69.18,140.60,-299.18
2015-10-18 17:19:27.443,-36.897896,174.64919,69.07,8.31,100.64,301.09,125,20413.70,-36.82,128.60,-317.18
2015-10-18 17:19:27.693,174.64969,174.64919,72.61,15.71,109.39,43.09,566.4,20243.70,24.18,154.60,-315.18
2015-10-18 17:19:27.953,-36.89818,174.64969,75.43,28.04,123.21,298.09,543,20977.70,32.18,169.60,-313.18
2015-10-18 17:19:28.217,-36.89818,174.64969,76.95,45.18,141.93,-357.91,616,20773.70,33.18,179.60,-315.18
2015-10-18 17:19:28.614,-36.89818,174.64969,76.85,62.32,160.98,-235.91,363,20684.70,-0.82,176.60,-293.18
2015-10-18 17:19:28.866,-36.89818,174.64969,74.38,81.00,-177.01,-797.91,186,20547.70,9.18,175.60,-256.18
2015-10-18 17:19:29.135,-36.89818,174.64969,72.10,86.69,-168.04,-898.91,254,20623.70,9.18,169.60,-231.18
2015-10-18 17:19:29.520,-36.89818,174.64969,69.43,89.07,-162.14,-999.91,272,20624.70,5.18,182.60,-210.18
2015-10-18 17:19:30.056,-36.89818,174.64969,65.65,87.86,-156.80,-1011.91,456.48,20619.70,11.18,166.60,-176.18
2015-10-18 17:19:34.670,-36.898182,174.64983,26.83,43.30,-147.16,-1011.91,2177.48,20549.70,-8.82,172.60,-101.18
2015-10-18 17:19:37.437,-36.898182,174.64983,5.41,43.13,-141.72,-1049.91,4123.48,20167.70,25.18,169.60,-136.18
2015-10-18 17:19:37.690,-36.898182,174.64983,0.62,41.71,-139.77,-1003.91,5233.48,20174.70,12.18,155.60,-168.18
2015-10-18 17:19:37.958,-36.898182,174.64983,-2.09,40.84,-138.95,-718.91,518,20485.70,22.18,153.60,-201.18
2015-10-18 17:19:38.341,-36.898182,174.64983,-5.17,39.48,-138.27,-264.91,4794,20408.70,0.18,143.60,-238.18
2015-10-18 17:19:38.869,174.64984,174.64983,-10.93,37.21,-137.20,-17.91,4327,20601.70,25.18,147.60,-318.18
2015-10-18 17:19:40.984,-36.89817,174.64984,-54.21,23.58,-146.69,690.09,4134,20470.70,99.18,140.60,-356.18
2015-10-18 17:19:41.511,-36.89817,174.64984,-61.23,21.53,-154.23,619.09,3783,20797.70,-8.82,153.60,-302.18
2015-10-18 17:19:42.021,-36.89817,174.64984,-67.30,17.11,-157.59,-968.91,2795.48,20318.70,-20.82,144.60,-160.18
2015-10-18 17:19:43.096,-36.89817,174.64984,-75.52,-2.39,-151.46,-1329.91,279,20772.70,11.18,158.60,-76.18
2015-10-18 17:19:43.355,-36.89817,174.64984,-77.46,-8.82,-147.55,-1125.91,276,20457.70,26.18,171.60,-83.18
2015-10-18 17:19:46.115,-36.897877,174.65009,-79.75,177.31,12.82,-415.91,2227,20761.70,3.18,159.60,-109.18
2015-10-18 17:19:46.515,-36.897877,174.65009,-77.60,172.63,14.91,-919.91,2115,20860.70,0.18,169.60,-113.18
2015-10-18 17:19:46.785,-36.897877,174.65009,-74.17,166.38,16.33,-958.91,225,20530.70,10.18,180.60,-104.18
2015-10-18 17:19:47.571,-36.897877,174.65009,-68.66,152.75,18.22,-799.91,240,20616.70,14.18,178.60,-107.18
2015-10-18 17:19:47.840,-36.897877,174.65009,-65.30,142.02,19.59,-647.91,2364,20618.70,2.18,175.60,-113.18
2015-10-18 17:19:48.093,-36.897877,174.65009,-63.19,134.00,20.51,-815.91,276,20271.70,18.18,164.60,-112.18
2015-10-18 17:19:48.505,-36.897877,174.65009,-60.99,125.73,21.11,-803.91,3205,20351.70,9.18,174.60,-108.18
2015-10-18 17:19:49.034,-36.897476,174.65022,-57.57,113.10,21.63,-1109.91,2803.48,20437.70,15.18,178.60,-109.18
2015-10-18 17:19:49.283,-36.897476,174.65022,-53.07,95.19,22.28,-970.91,2654,20577.70,6.18,174.60,-105.18
2015-10-18 17:19:49.806,-36.897476,174.65022,-50.87,86.54,22.65,-1232.91,276,20202.70,8.18,178.60,-104.18
2015-10-18 17:19:50.211,-36.897476,174.65022,-46.45,71.51,23.56,-1131.91,2909.48,20634.70,13.18,157.60,-105.18
2015-10-18 17:19:50.475,-36.897476,174.65022,-43.06,62.00,24.71,-446.91,325,20556.70,-0.82,164.60,-144.18
2015-10-18 17:19:50.727,-36.897476,174.65022,-40.73,55.97,25.57,-606.91,3370,20146.70,2.18,170.60,-143.18
2015-10-18 17:19:50.992,-36.897476,174.65022,-38.37,50.50,26.43,-738.91,375,20765.70,14.18,164.60,-141.18
2015-10-18 17:19:51.521,-36.897476,174.65022,-36.03,45.84,27.27,-943.91,360,20576.70,25.18,182.60,-125.18
2015-10-18 17:19:51.922,-36.897476,174.65022,-31.20,40.57,27.89,-862.91,349,20609.70,14.18,187.60,-115.18
2015-10-18 17:19:52.173,-36.897476,174.65022,-28.00,38.28,28.00,-1497.91,3514,20394.70,1.18,185.60,-84.18
2015-10-18 17:19:52.434,-36.897476,174.65022,-26.07,37.06,28.13,-1101.91,341,20579.70,-3.82,186.60,-84.18
2015-10-18 17:19:53.757,174.65036,174.65022,-18.12,33.66,28.45,-1171.91,290,20230.70,-4.82,175.60,-81.18
2015-10-18 17:19:54.155,-36.897114,174.65036,-13.97,32.03,28.83,-1261.91,314,20294.70,-7.82,184.60,-89.18
2015-10-18 17:19:54.407,-36.897114,174.65036,-10.96,31.26,29.15,-1060.91,3033.48,20710.70,-15.82,170.60,-92.18
2015-10-18 17:19:54.669,-36.897114,174.65036,-8.76,30.86,29.48,-1244.91,276,20469.70,-4.82,184.60,-92.18
2015-10-18 17:19:54.927,-36.897114,174.65036,-6.68,30.74,29.81,-1186.91,292,20484.70,-9.82,179.60,-90.18
2015-10-18 17:19:55.202,-36.897114,174.65036,-4.65,30.73,30.33,-1041.91,287,20543.70,12.18,167.60,-93.18
2015-10-18 17:19:55.990,-36.897114,174.65036,1.67,29.59,30.85,-1253.91,2631.48,19921.70,-25.82,179.60,-111.18
2015-10-18 17:19:56.242,-36.897114,174.65036,3.93,29.19,31.32,-909.91,248,20654.70,-6.82,183.60,-111.18
2015-10-18 17:19:56.504,-36.897114,174.65036,6.09,28.85,32.13,-1239.91,2678.48,20657.70,26.18,171.60,-109.18
2015-10-18 17:19:56.767,-36.897114,174.65036,8.13,28.81,32.57,-1265.91,262,20596.70,-6.82,183.60,-99.18
2015-10-18 17:19:57.011,-36.897114,174.65036,9.99,28.62,33.16,-1122.91,240,20580.70,13.18,155.60,-95.18
2015-10-18 17:19:57.429,-36.897114,174.65036,12.10,28.38,33.45,-1071.91,2214.48,20755.70,-21.82,186.60,-100.18
2015-10-18 17:19:57.682,-36.897114,174.65036,14.79,27.87,34.50,-1070.91,2370.48,20833.70,11.18,151.60,-100.18
2015-10-18 17:19:57.947,-36.897114,174.65036,16.85,27.72,35.21,-902.91,2272,20119.70,-8.82,178.60,-97.18
2015-10-18 17:19:58.201,-36.897114,174.65036,18.62,27.74,35.91,-820.91,2231,20539.70,4.18,161.60,-98.18
2015-10-18 17:19:58.481,-36.897114,174.65036,20.58,27.83,36.71,-1125.91,202,20487.70,7.18,170.60,-101.18
2015-10-18 17:19:58.874,-36.897114,174.65036,22.55,27.93,37.16,-1192.91,1867.48,20053.70,-21.82,172.60,-104.18
2015-10-18 17:19:59.249,-36.897114,174.65036,25.78,28.10,38.62,-864.91,207,20171.70,23.18,184.60,-110.18
2015-10-18 17:19:59.518,-36.897114,174.65036,28.61,27.99,39.90,-858.91,2042,20523.70,2.18,148.60,-108.18
2015-10-18 17:19:59.768,-36.897114,174.65036,30.87,27.91,41.05,-874.91,225,20599.70,28.18,197.60,-111.18
2015-10-18 17:20:00.175,-36.897114,174.65036,33.00,27.80,42.07,-998.91,225,20358.70,-1.82,178.60,-109.18
2015-10-18 17:20:00.552,-36.897114,174.65036,36.37,28.03,44.27,-930.91,244,20371.70,22.18,192.60,-112.18
2015-10-18 17:20:00.814,-36.897114,174.65036,39.29,27.82,46.04,-1149.91,2536.48,20343.70,13.18,177.60,-112.18
2015-10-18 17:20:01.085,-36.897114,174.65036,41.26,28.34,47.10,-649.91,241,19876.70,-0.82,170.60,-113.18
2015-10-18 17:20:01.480,-36.897114,174.65036,43.32,28.46,49.09,-617.91,231,21145.70,40.18,170.60,-110.18
2015-10-18 17:20:01.878,-36.897114,174.65036,46.09,28.32,51.66,-1028.91,2522.48,20138.70,11.18,170.60,-111.18
2015-10-18 17:20:02.265,-36.897114,174.65036,48.81,28.78,54.41,-919.91,250,20808.70,20.18,169.60,-111.18
2015-10-18 17:20:02.533,-36.897114,174.65036,51.31,28.53,57.43,-851.91,260,20645.70,22.18,155.60,-105.18
2015-10-18 17:20:03.175,-36.897114,174.65036,55.47,31.71,63.92,-926.91,292,21085.70,43.18,186.60,-105.18
2015-10-18 17:20:03.581,-36.897114,174.65036,57.16,34.43,67.09,-769.91,2856.48,20127.70,-36.82,206.60,-104.18
2015-10-18 17:20:03.968,-36.897114,174.65036,58.99,36.52,72.51,-1081.91,305,20341.70,13.18,159.60,-90.18
2015-10-18 17:20:04.353,-36.897114,174.65036,60.63,38.66,78.44,-1070.91,3034.48,20185.70,-37.82,205.60,-92.18
2015-10-18 17:20:04.751,-36.897114,174.65036,61.96,40.47,85.72,-1046.91,282,20068.70,42.18,193.60,-96.18
2015-10-18 17:20:05.014,-36.897114,174.65036,62.73,39.63,90.97,-1045.91,2706.48,21314.70,-13.82,137.60,-81.18
2015-10-18 17:20:05.286,-36.897114,174.65036,62.76,38.38,95.01,-1231.91,311,20158.70,43.18,149.60,-65.18
2015-10-18 17:20:05.817,174.6508,174.65036,62.52,36.98,98.16,-1285.91,2828.48,19860.70,-17.82,140.60,-56.18
2015-10-18 17:20:06.200,-36.895897,174.6508,61.26,33.42,105.77,-1398.91,2683,19927.70,8.18,164.60,-40.18
2015-10-18 17:20:06.483,-36.895897,174.6508,59.90,30.15,111.39,-1304.91,264,20028.70,45.18,155.60,-36.18
2015-10-18 17:20:06.737,-36.895897,174.6508,58.75,28.10,114.56,-1437.91,2456.48,20731.70,-10.82,183.60,-31.18
2015-10-18 17:20:07.131,-36.895897,174.6508,57.48,25.69,117.33,-1546.91,2169,20312.70,5.18,157.60,-25.18
2015-10-18 17:20:07.533,-36.895897,174.6508,55.21,21.88,121.07,-1728.91,242,20660.70,12.18,172.60,-16.18
2015-10-18 17:20:07.923,-36.895897,174.6508,52.61,18.84,125.14,-1339.91,2223,20405.70,7.18,174.60,-18.18
2015-10-18 17:20:08.329,-36.895897,174.6508,50.04,16.07,128.33,-1718.91,2260,20572.70,1.18,169.60,-20.18
2015-10-18 17:20:08.708,-36.895897,174.6508,47.43,13.59,131.41,-1852.91,267,20618.70,35.18,160.60,-16.18
2015-10-18 17:20:08.970,-36.895897,174.6508,44.72,11.39,134.36,-1227.91,262,19915.70,23.18,201.60,-24.18
2015-10-18 17:20:09.620,-36.895897,174.6508,40.37,9.68,139.13,-1059.91,2435,20254.70,3.18,196.60,-62.18
2015-10-18 17:20:09.886,-36.895897,174.6508,38.64,9.59,141.14,-682.91,2378,19830.70,19.18,181.60,-62.18
2015-10-18 17:20:10.283,-36.895897,174.6508,37.00,9.68,142.98,-611.91,2829,20140.70,17.18,188.60,-65.18
2015-10-18 17:20:10.534,-36.895897,174.6508,34.93,9.84,145.86,-529.91,2694,20591.70,8.18,187.60,-102.18
2015-10-18 17:20:10.796,-36.895897,174.6508,34.14,10.00,148.02,119.09,214,20443.70,-24.82,199.60,-141.18
2015-10-18 17:20:11.336,-36.895897,174.6508,32.99,10.39,150.19,37.09,2641,20275.70,-1.82,186.60,-141.18
2015-10-18 17:20:11.583,174.65125,174.6508,30.21,11.70,153.99,-400.91,297,20879.70,11.18,215.60,-142.18
2015-10-18 17:20:12.005,-36.895283,174.65125,28.80,12.12,156.00,-546.91,283,20193.70,18.18,185.60,-138.18
2015-10-18 17:20:12.516,-36.895283,174.65125,23.83,10.82,159.14,-1527.91,2871,20566.70,2.18,188.60,-70.18
2015-10-18 17:20:12.767,-36.895283,174.65125,21.51,10.18,160.10,-1611.91,283,20583.70,21.18,186.60,-56.18
2015-10-18 17:20:13.164,-36.895283,174.65125,19.34,9.72,161.26,-1823.91,276,20558.70,37.18,203.60,-64.18
2015-10-18 17:20:13.421,-36.895283,174.65125,16.47,9.34,162.38,-1577.91,232,20159.70,-4.82,177.60,-68.18
2015-10-18 17:20:13.686,-36.895283,174.65125,14.67,9.48,163.13,-1062.91,240,20946.70,17.18,169.60,-75.18
2015-10-18 17:20:13.949,-36.895283,174.65125,13.18,9.50,164.27,-1147.91,2050.48,21929.70,-31.82,164.60,-86.18
2015-10-18 17:20:14.206,-36.895283,174.65125,11.67,9.86,165.01,-610.91,147,20876.70,36.18,183.60,-104.18
2015-10-18 17:20:14.473,-36.895283,174.65125,9.99,10.07,165.68,-1021.91,2772.48,20942.70,-6.82,167.60,-108.18
2015-10-18 17:20:14.749,-36.895283,174.65125,7.56,10.45,166.82,-1324.91,1891.48,19081.70,14.18,230.60,-106.18
2015-10-18 17:20:15.405,-36.895283,174.65125,3.53,9.99,168.82,-1150.91,2309.48,20105.70,-14.82,207.60,-99.18
2015-10-18 17:20:15.662,-36.895283,174.65125,1.57,9.94,169.41,-1261.91,2517.48,20554.70,-19.82,186.60,-97.18
2015-10-18 17:20:15.914,-36.895283,174.65125,-0.07,9.77,170.14,-1398.91,242,20319.70,-0.82,155.60,-92.18
2015-10-18 17:20:16.167,-36.895283,174.65125,-1.86,9.69,170.90,-1217.91,248,20575.70,29.18,167.60,-92.18
2015-10-18 17:20:16.571,174.65176,174.65125,-3.26,9.42,171.74,-1531.91,2520,21023.70,7.18,154.60,-88.18
2015-10-18 17:20:16.832,-36.894764,174.65176,-6.23,8.97,172.66,-1043.91,1996.48,20138.70,-33.82,205.60,-92.18
2015-10-18 17:20:17.233,-36.894764,174.65176,-7.98,9.05,173.02,-1191.91,249,20822.70,1.18,164.60,-100.18
2015-10-18 17:20:17.615,-36.894764,174.65176,-10.47,9.27,173.82,-920.91,2360,20617.70,5.18,165.60,-105.18
2015-10-18 17:20:17.878,-36.894764,174.65176,-13.70,9.24,174.68,-1306.91,2558.48,20412.70,24.18,187.60,-108.18
2015-10-18 17:20:18.411,-36.894764,174.65176,-15.80,9.08,175.05,-1026.91,262,20686.70,2.18,186.60,-111.18
2015-10-18 17:20:18.703,-36.894764,174.65176,-19.58,8.77,175.98,-932.91,315,20249.70,22.18,166.60,-108.18
2015-10-18 17:20:19.062,-36.894764,174.65176,-21.59,9.01,176.14,-598.91,302,20283.70,-0.82,178.60,-108.18
2015-10-18 17:20:19.711,-36.894764,174.65176,-27.41,9.11,176.87,-807.91,2729,20497.70,4.18,177.60,-112.18
2015-10-18 17:20:19.986,-36.894764,174.65176,-29.48,8.39,177.25,-956.91,250,20897.70,11.18,175.60,-104.18
2015-10-18 17:20:20.250,-36.894764,174.65176,-31.45,7.72,177.34,-1055.91,2625.48,20518.70,-3.82,162.60,-104.18
2015-10-18 17:20:20.509,-36.894764,174.65176,-33.20,6.38,177.49,-950.91,251,20579.70,19.18,174.60,-114.18
2015-10-18 17:20:20.771,-36.894764,174.65176,-34.74,5.25,177.45,-288.91,2938,20465.70,3.18,154.60,-111.18
2015-10-18 17:20:21.306,-36.894764,174.65176,-36.56,6.08,177.79,-1351.91,2957.48,20602.70,37.18,183.60,-108.18
2015-10-18 17:20:21.560,174.65231,174.65176,-40.51,5.75,177.39,-447.91,2877,20657.70,5.18,173.60,-115.18
2015-10-18 17:20:21.824,-36.89425,174.65231,-42.37,6.61,177.01,-1006.91,2840.48,19869.70,36.18,156.60,-129.18
2015-10-18 17:20:22.087,-36.89425,174.65231,-44.36,6.94,176.69,-790.91,272,20965.70,44.18,174.60,-127.18
2015-10-18 17:20:22.635,-36.89425,174.65231,-46.51,6.84,176.38,-915.91,290,20089.70,35.18,203.60,-124.18
2015-10-18 17:20:23.018,-36.89425,174.65231,-50.08,5.94,175.51,-803.91,2774,20627.70,12.18,192.60,-99.18
2015-10-18 17:20:23.263,-36.89425,174.65231,-53.06,4.71,175.03,-823.91,2489,20757.70,-0.82,170.60,-99.18
2015-10-18 17:20:23.528,-36.89425,174.65231,-54.85,3.80,174.51,-958.91,2678,20096.70,1.18,168.60,-96.18
2015-10-18 17:20:23.932,-36.89425,174.65231,-56.70,2.94,174.30,-885.91,2651,20538.70,11.18,159.60,-86.18
2015-10-18 17:20:24.322,-36.89425,174.65231,-59.92,1.58,173.84,-1373.91,281,20552.70,12.18,188.60,-89.18
2015-10-18 17:20:24.850,-36.89425,174.65231,-62.77,0.42,172.90,-1293.91,296,20458.70,11.18,186.60,-89.18
2015-10-18 17:20:25.129,-36.89425,174.65231,-66.77,-0.80,170.93,-1161.91,2820,20217.70,2.18,175.60,-87.18
2015-10-18 17:20:25.375,-36.89425,174.65231,-68.51,-1.33,169.95,-1222.91,3309.48,20608.70,16.18,154,-86.18
2015-10-18 17:20:25.653,-36.89425,174.65231,-70.85,-0.77,168.03,-944.91,2974,20919.70,-1.82,209.60,-91.18
2015-10-18 17:20:26.157,-36.89425,174.65231,-72.65,0.46,164.94,-1006.91,2634.48,20607.70,-43.82,170.60,-100.18
2015-10-18 17:20:26.565,-36.89425,174.65231,-75.84,6.37,156.11,-1288.91,2956.48,20552.70,-88.82,180.60,-110.18
2015-10-18 17:20:27.488,-36.89425,174.65231,-79.32,26.05,131.90,-892.91,2630.48,20625.70,-10.82,181.60,-119.18
2015-10-18 17:20:28.144,-36.89425,174.65231,-79.50,57.34,95.89,-750.91,257,20596.70,-0.82,189.60,-111.18
2015-10-18 17:20:28.406,-36.89425,174.65231,-78.43,70.44,79.75,-881.91,2607,20553.70,12.18,182.60,-99.18
2015-10-18 17:20:28.664,-36.89425,174.65231,-77.39,76.40,71.47,-1232.91,246,20386.70,-5.82,179.60,-92.18
2015-10-18 17:20:29.727,-36.89425,174.65231,-73.24,83.59,55.23,-1274.91,236,21047.70,62.18,208.60,-92.18
2015-10-18 17:20:30.108,-36.89425,174.65231,-69.77,81.59,49.62,-1039.91,2747.48,21113.70,28.18,174.60,-111.18
2015-10-18 17:20:30.521,-36.89425,174.65231,-66.82,77.77,46.85,-831.91,2258.48,20238.70,-21.82,163.60,-113.18
2015-10-18 17:20:30.902,-36.89425,174.65231,-63.73,73.56,44.15,-924.91,2446.48,20133.70,-19.82,183.60,-102.18
2015-10-18 17:20:31.298,-36.89425,174.65231,-60.86,68.48,42.54,-915.91,248,20463.70,33.18,174.60,-100.18
2015-10-18 17:20:31.829,-36.89425,174.65231,-57.56,63.59,40.91,-1038.91,2398.48,20201.70,21.18,195.60,-107.18
2015-10-18 17:20:32.352,-36.89425,174.65231,-52.18,52.41,40.34,-1485.91,3172,20685.70,6.18,99.60,-98.18
2015-10-18 17:20:32.753,-36.89425,174.65231,-50.43,49.73,40.38,-950.91,3259,20570.70,36.18,168.60,-95.18
2015-10-18 17:20:34.586,-36.892952,174.65366,-37.13,37.01,40.09,-866.91,408,20174.70,-20.82,162.60,-87.18
2015-10-18 17:20:34.849,-36.892952,174.65366,-35.24,36.60,40.04,-1197.91,2842,21008.70,0.18,200.60,-83.18
2015-10-18 17:20:35.098,-36.892952,174.65366,-32.93,36.63,40.15,-827.91,2724,20816.70,34.18,203.60,-90.18
2015-10-18 17:20:35.765,-36.892952,174.65366,-27.30,36.94,38.68,-1545.91,2984.48,21089.70,-12.82,224.60,-100.18
2015-10-18 17:20:36.691,-36.892952,174.65366,-22.57,33.09,40.12,-33.91,3397,18954.70,33.18,171.60,-119.18
2015-10-18 17:20:36.950,-36.892952,174.65366,-19.24,32.45,40.77,-414.91,311,20793.70,37.18,164.60,-133.18
2015-10-18 17:20:37.488,-36.892952,174.65366,-14.59,31.86,41.69,-440.91,241,20985.70,36.18,112.60,-118.18
2015-10-18 17:20:37.737,-36.892952,174.65366,-12.28,32.13,41.54,-1144.91,3071.48,19830.70,-25.82,178.60,-102.18
2015-10-18 17:20:38.134,-36.892952,174.65366,-10.75,31.79,42.09,-1496.91,2242.48,21506.70,-16.82,134.60,-97.18
2015-10-18 17:20:38.411,-36.892952,174.65366,-7.21,31.80,42.52,-1417.91,2734.48,22276.70,-7.82,229.60,-103.18
