Time,Lat,Long,Pitch,Yaw,Roll,AccX,AccY,AccZ,GyroX,GyroY,GyroZ
2015-10-18 20:02:09.196,-36.887314,174.66107,66.92,-121.62,-169.97,-899.87,2279.97,-10982.31,-1245.95,535.98,-37.90
2015-10-18 20:02:09.686,-36.887314,174.66107,65.76,-119.44,-167.70,-953.87,2309.97,-10980.31,-1244.95,530.98,-42.90
2015-10-18 20:02:10.023,-36.887314,174.66107,64.49,-117.69,-165.85,-919.87,2237.97,-10942.31,-1243.95,534.98,-39.90
2015-10-18 20:02:10.390,-36.887314,174.66107,63.26,-116.00,-164.06,-916.87,2281.97,-10973.31,-1243.95,527.98,-43.90
2015-10-18 20:02:10.795,-36.887314,174.66107,61.93,-114.71,-162.66,-925.87,2289.97,-10905.31,-1244.95,533.98,-40.90
2015-10-18 20:02:11.294,-36.887314,174.66107,60.59,-113.54,-161.40,-971.87,2271.97,-10936.31,-1244.95,530.98,-41.90
2015-10-18 20:02:11.435,-36.887314,174.66107,59.25,-112.49,-160.30,-906.87,2320.97,-10953.31,-1244.95,528.98,-43.90
2015-10-18 20:02:11.857,-36.887314,174.66107,58.31,-111.93,-159.71,-991.87,2258.97,-10941.31,-1243.95,532.98,-40.90
2015-10-18 20:02:12.242,-36.887314,174.66107,56.90,-111.17,-158.94,-886.87,2294.97,-10937.31,-1244.95,529.98,-41.90
2015-10-18 20:02:12.664,-36.887314,174.66107,55.49,-110.49,-158.26,-914.87,2282.97,-10942.31,-1244.95,531.98,-41.90
2015-10-18 20:02:12.921,-36.887314,174.66107,54.03,-109.97,-157.79,-901.87,2293.97,-10970.31,-1243.95,534.98,-39.90
2015-10-18 20:02:13.319,-36.887314,174.66107,53.09,-109.55,-157.45,-901.87,2289.97,-10902.31,-1244.95,527.98,-42.90
2015-10-18 20:02:13.718,-36.887314,174.66107,51.63,-109.09,-157.11,-948.87,2261.97,-10924.31,-1244.95,535.98,-38.90
2015-10-18 20:02:14.369,-36.887314,174.66107,50.17,-108.65,-156.86,-862.87,2250.97,-10941.31,-1243.95,532.98,-40.90
2015-10-18 20:02:14.787,-36.887314,174.66107,48.71,-108.21,-156.67,-928.87,2271.97,-10898.31,-1244.95,533.98,-39.90
2015-10-18 20:02:14.949,-36.887314,174.66107,47.25,-107.83,-156.58,-925.87,2274.97,-10898.31,-1244.95,529.98,-42.90
2015-10-18 20:02:15.223,-36.887314,174.66107,45.78,-107.49,-156.55,-950.87,2283.97,-10918.31,-1244.95,529.98,-42.90
2015-10-18 20:02:15.451,-36.887314,174.66107,44.75,-107.41,-156.66,-962.87,2267.97,-10957.31,-1243.95,535.98,-37.90
2015-10-18 20:02:15.988,-36.887314,174.66107,43.76,-107.19,-156.71,-928.87,2260.97,-10881.31,-1243.95,529.98,-42.90
2015-10-18 20:02:16.225,-36.887314,174.66107,42.35,-106.81,-156.78,-938.87,2276.97,-10941.31,-1244.95,527.98,-43.90
2015-10-18 20:02:16.622,-36.887314,174.66107,40.79,-106.69,-157.08,-917.87,2268.97,-10925.31,-1244.95,537.98,-37.90
2015-10-18 20:02:17.084,-36.887314,174.66107,39.36,-106.32,-157.29,-914.87,2235.97,-10943.31,-1244.95,526.98,-43.90
2015-10-18 20:02:17.607,-36.887314,174.66107,37.93,-106.03,-157.56,-921.87,2285.97,-10937.31,-1244.95,530.98,-42.90
2015-10-18 20:02:17.814,-36.887314,174.66106,36.45,-105.85,-157.94,-920.87,2249.97,-10949.31,-1244.95,532.98,-39.90
2015-10-18 20:02:18.225,-36.887302,174.66106,35.01,-105.59,-158.33,-922.87,2326.97,-10933.31,-1244.95,529.98,-40.90
2015-10-18 20:02:18.620,-36.887302,174.66106,33.58,-105.33,-158.76,-873.87,2277.97,-10953.31,-1244.95,531.98,-41.90
2015-10-18 20:02:19.080,-36.887302,174.66106,32.13,-105.11,-159.27,-937.87,2285.97,-10914.31,-1244.95,535.98,-38.90
2015-10-18 20:02:19.417,-36.887302,174.66106,30.61,-104.98,-159.87,-806.87,2286.97,-10911.31,-1244.95,537.98,-36.90
2015-10-18 20:02:19.707,-36.887302,174.66106,29.35,-104.44,-160.30,-880.87,2271.97,-10995.31,-1244.95,525.98,-47.90
2015-10-18 20:02:19.944,-36.887302,174.66106,28.54,-104.07,-160.60,-984.87,2284.97,-10939.31,-1246.95,516.98,-50.90
2015-10-18 20:02:20.348,-36.887302,174.66106,27.46,-104.12,-161.11,-952.87,2269.97,-10943.31,-1244.95,547.98,-29.90
2015-10-18 20:02:20.818,-36.887302,174.66106,26.04,-103.88,-161.79,-922.87,2339.97,-10853.31,-1245.95,529.98,-40.90
2015-10-18 20:02:21.006,-36.887302,174.66106,24.85,-103.36,-162.36,-908.87,2268.97,-10926.31,-1244.95,521.98,-50.90
2015-10-18 20:02:21.409,-36.887302,174.66106,23.95,-103.12,-162.80,-1012.87,2293.97,-11017.31,-1244.95,533.98,-42.90
2015-10-18 20:02:21.824,-36.887302,174.66106,22.62,-102.82,-163.52,-904.87,2213.97,-10911.31,-1243.95,529.98,-40.90
2015-10-18 20:02:22.273,-36.887302,174.66106,21.32,-102.37,-164.26,-932.87,2266.97,-10919.31,-1244.95,531.98,-40.90
2015-10-18 20:02:22.477,-36.887302,174.66106,20.04,-102.00,-165.03,-865.87,2270.97,-10859.31,-1245.95,532.98,-41.90
2015-10-18 20:02:22.776,-36.887302,174.66106,19.23,-101.75,-165.55,-1024.87,2287.97,-10912.31,-1245.95,527.98,-46.90
2015-10-18 20:02:23.096,-36.887302,174.66106,18.29,-101.57,-166.13,-876.87,2263.97,-10888.31,-1244.95,539.98,-34.90
2015-10-18 20:02:23.390,-36.887302,174.66106,17.44,-101.36,-166.70,-833.87,2302.97,-10926.31,-1243.95,535.98,-39.90
2015-10-18 20:02:23.774,-36.887302,174.66106,16.73,-100.91,-167.25,-891.87,2281.97,-10926.31,-1246.95,520.98,-48.90
2015-10-18 20:02:24.067,-36.887302,174.66106,15.60,-100.40,-168.11,-940.87,2301.97,-10951.31,-1243.95,528.98,-42.90
2015-10-18 20:02:24.328,-36.887302,174.66106,14.40,-99.98,-169.03,-984.87,2281.97,-10915.31,-1244.95,530.98,-40.90
2015-10-18 20:02:24.860,-36.887302,174.66106,13.49,-99.84,-169.68,-894.87,2273.97,-10952.31,-1243.95,539.98,-35.90
2015-10-18 20:02:25.417,-36.887302,174.66106,11.71,-99.48,-171.06,-734.87,2289.97,-10904.31,-1245.95,535.98,-37.90
2015-10-18 20:02:25.648,-36.887302,174.66106,10.24,-98.87,-172.40,-788.87,2283.97,-10920.31,-1243.95,536.98,-36.90
2015-10-18 20:02:26.115,-36.887302,174.66106,9.59,-98.55,-173.09,-817.87,2253.97,-10924.31,-1244.95,526.98,-45.90
2015-10-18 20:02:26.315,-36.887302,174.66106,8.60,-98.05,-174.15,-821.87,2227.97,-10923.31,-1244.95,531.98,-40.90
2015-10-18 20:02:26.741,-36.887302,174.66106,7.96,-97.69,-174.86,-823.87,2279.97,-10950.31,-1244.95,528.98,-42.90
2015-10-18 20:02:27.119,-36.887325,174.66101,6.93,-97.18,-175.97,-883.87,2302.97,-10904.31,-1246.95,529.98,-41.90
2015-10-18 20:02:27.361,-36.887325,174.66101,5.86,-96.74,-177.10,-830.87,2355.97,-10948.31,-1243.95,536.98,-36.90
2015-10-18 20:02:27.917,-36.887325,174.66101,5.01,-96.57,-177.89,-869.87,2175.97,-10893.31,-1244.95,547.98,-29.90
2015-10-18 20:02:28.184,-36.887325,174.66101,4.01,-96.06,-179.08,-727.87,2170.97,-10955.31,-1243.95,529.98,-38.90
2015-10-18 20:02:28.710,-36.887325,174.66101,3.19,-95.57,179.68,-566.87,2309.97,-10914.31,-1246.95,517.98,-50.90
2015-10-18 20:02:28.980,-36.887325,174.66101,2.81,-95.13,178.87,-787.87,2308.97,-10945.31,-1243.95,520.98,-48.90
2015-10-18 20:02:29.272,-36.887325,174.66101,2.30,-87.02,177.22,-899.87,2375.97,-10874.31,-1244.95,512.98,-55.90
2015-10-18 20:02:30.072,-36.887325,174.66101,1.86,-83.49,176.39,-1103.87,2282.97,-10860.31,-1244.95,523.98,-46.90
2015-10-18 20:02:30.287,-36.887325,174.66101,-0.91,-82.56,174.41,-623.87,2181.97,-10905.31,-1243.95,568.98,-12.90
2015-10-18 20:02:30.693,-36.887325,174.66101,-2.24,-79.35,173.08,-528.87,2242.97,-10909.31,-1242.95,559.98,-20.90
2015-10-18 20:02:30.991,-36.887325,174.66101,-2.92,-75.60,171.68,-494.87,2213.97,-10926.31,-1244.95,531.98,-41.90
2015-10-18 20:02:31.377,-36.887325,174.66101,-3.18,-72.87,170.73,-682.87,2254.97,-10910.31,-1244.95,521.98,-46.90
2015-10-18 20:02:31.755,-36.887325,174.66101,-3.63,-68.67,169.30,-487.87,2262.97,-10955.31,-1245.95,527.98,-43.90
2015-10-18 20:02:32.002,174.66101,174.66101,-4.01,-63.07,167.83,-625.87,2286.97,-10935.31,-1244.95,533.98,-41.90
2015-10-18 20:02:32.409,-36.88733,174.66101,-4.16,-59.47,166.85,-490.87,2239.97,-10967.31,-1245.95,520.98,-47.90
2015-10-18 20:02:32.812,-36.88733,174.66101,-4.30,-74.54,165.37,-577.87,2310.97,-10865.31,-1244.95,520.98,-47.90
2015-10-18 20:02:33.292,-36.88733,174.66101,-4.54,-64.57,163.90,-520.87,2449.97,-11046.31,-1241.95,526.98,-44.90
2015-10-18 20:02:33.553,-36.88733,174.66101,-4.70,-47.94,162.91,-733.87,2241.97,-10791.31,-1248.95,526.98,-43.90
2015-10-18 20:02:33.965,-36.88733,174.66101,-5.12,-26.62,161.44,-881.87,2208.97,-10891.31,-1241.95,538.98,-37.90
2015-10-18 20:02:34.134,-36.88733,174.66101,-5.14,-8.72,159.95,-634.87,2275.97,-11771.31,-1242.95,522.98,-46.90
2015-10-18 20:02:34.418,-36.88733,174.66101,-5.07,1.65,158.95,-653.87,2433.97,-10433.31,-1247.95,520.98,-50.90
2015-10-18 20:02:34.782,-36.88733,174.66101,-4.76,10.94,157.97,-740.87,2103.97,-11765.31,-1245.95,509.98,-56.90
2015-10-18 20:02:35.084,-36.88733,174.66101,-4.31,19.40,156.97,-1069.87,1831.97,-11490.31,-1243.95,486.98,-72.90
2015-10-18 20:02:35.728,-36.88733,174.66101,-4.57,29.81,155.52,-1047.87,2109.97,-11194.31,-1236.95,543.98,-31.90
2015-10-18 20:02:36.282,-36.88733,174.66101,21.95,50.27,150.12,-941.87,2181.97,-8069.31,-1310.95,524.98,-44.90
2015-10-18 20:02:37.059,-36.88733,174.66101,23.69,85.44,149.51,-876.87,2361.97,-11142.31,-1250.95,483.98,-70.90
2015-10-18 20:02:37.298,-36.88733,174.66101,25.94,130.43,148.59,-896.87,1433.97,-12678.31,-1236.95,488.98,-18.90
2015-10-18 20:02:37.842,-36.88733,174.66101,26.78,139.92,147.93,-1131.87,305.97,-12166.31,-1242.95,467.98,8.10
2015-10-18 20:02:38.513,-36.88733,174.66101,27.81,151.07,146.48,-1266.87,602.97,-11510.31,-1249.95,494.98,-20.90
2015-10-18 20:02:38.826,-36.88733,174.66101,28.25,156.90,145.94,-892.87,1760.97,-9416.31,-1306.95,548.98,-56.90
2015-10-18 20:02:39.049,-36.88733,174.66101,31.36,161.68,146.10,-1469.87,3003.97,-13350.31,-1221.95,458.98,-159.90
2015-10-18 20:02:39.398,-36.88733,174.66101,33.18,162.75,145.34,-1243.87,2244.97,-13464.31,-1219.95,408.98,-20.90
2015-10-18 20:02:39.701,-36.88733,174.66101,33.04,159.63,142.41,-850.87,2960.97,-12740.31,-1216.95,457.98,175.10
2015-10-18 20:02:39.996,-36.88733,174.66101,31.79,157.30,140.57,-1210.87,1414.97,-8537.31,-1300.95,529.98,58.10
2015-10-18 20:02:40.207,-36.88733,174.66101,31.26,156.80,140.10,-1249.87,2442.97,-8929.31,-1226.95,556.98,27.10
2015-10-18 20:02:40.810,-36.88733,174.66101,31.42,157.72,140.33,-760.87,1815.97,-7726.31,-1195.95,570.98,-61.90
2015-10-18 20:02:41.417,-36.88733,174.66101,31.05,160.40,141.42,-1113.87,1385.97,-11543.31,-1255.95,615.98,-106.90
2015-10-18 20:02:41.738,-36.88733,174.66101,24.58,173.15,152.17,-1197.87,1195.97,-902.31,-1262.95,717.98,-129.90
2015-10-18 20:02:42.507,-36.88733,174.66101,21.10,178.56,153.88,-1175.87,2351.97,-11108.31,-1185.95,813.98,-89.90
2015-10-18 20:02:42.726,-36.88733,174.66101,10.83,-148.56,164.30,-1002.87,3134.97,-10809.31,-1108.95,887.98,-557.90
2015-10-18 20:02:43.309,-36.88733,174.66101,8.38,-133.79,167.65,130.13,2045.97,-11589.31,-1087.95,811.98,-590.90
2015-10-18 20:02:43.661,-36.88733,174.66101,3.28,-114.26,171.12,-295.87,2746.97,-15613.31,-1038.95,804.98,-423.90
2015-10-18 20:02:44.099,-36.887314,174.66103,-1.63,-104.07,171.93,-878.87,1603.97,-9237.31,-1122.95,878.98,-322.90
2015-10-18 20:02:44.216,-36.887314,174.66103,-6.88,-88.61,165.82,-1837.87,2323.97,-8362.31,-1146.95,957.98,-426.90
2015-10-18 20:02:44.872,-36.887314,174.66103,-11.39,-79.70,165.80,1459.13,3231.97,-9945.31,-983.95,950.98,-593.90
2015-10-18 20:02:45.129,-36.887314,174.66103,-21.69,-49.73,163.97,-1429.87,2201.97,-8241.31,-1104.95,896.98,-522.90
2015-10-18 20:02:45.653,-36.887314,174.66103,-24.74,-41.15,162.02,441.13,1993.97,-10979.31,-980.95,866.98,-569.90
2015-10-18 20:02:45.932,-36.887314,174.66103,-26.98,-27.63,157.44,1793.13,1790.97,-11594.31,-1000.95,831.98,-546.90
2015-10-18 20:02:46.443,-36.887314,174.66103,-23.70,-7.60,149.01,-2278.87,1166.97,-11266.31,-1144.95,679.98,-586.90
2015-10-18 20:02:47.251,-36.887314,174.66103,-19.93,-3.30,146.09,-2242.87,755.97,-11781.31,-1188.95,556.98,-470.90
2015-10-18 20:02:47.507,-36.887314,174.66103,-0.77,-9.73,162.66,-1979.87,309.97,-9529.31,-1249.95,439.98,-136.90
2015-10-18 20:02:48.159,-36.887314,174.66103,0.11,-14.07,162.17,-2216.87,655.97,-14198.31,-1231.95,481.98,-43.90
2015-10-18 20:02:48.532,-36.887314,174.66103,0.68,-21.13,160.31,-928.87,513.97,-14160.31,-1191.95,540.98,-31.90
2015-10-18 20:02:48.917,-36.887314,174.66103,0.43,-22.54,159.61,-1881.87,586.97,-13303.31,-1177.95,545.98,-12.90
2015-10-18 20:02:49.133,-36.887314,174.66103,-0.40,-23.74,158.92,-879.87,1825.97,-11577.31,-1278.95,566.98,17.10
2015-10-18 20:02:49.543,-36.887314,174.66103,-2.19,-24.43,158.14,-891.87,664.97,-17172.32,-1248.95,649.98,37.10
2015-10-18 20:02:50.034,-36.887314,174.66103,-0.14,-24.03,157.35,-1065.87,3458.97,-12423.31,-1307.95,541.98,-141.90
2015-10-18 20:02:50.403,-36.887314,174.66103,8.89,-22.79,155.81,-1719.87,4044.97,-12998.31,-1250.95,251.98,-252.90
2015-10-18 20:02:50.686,-36.887314,174.66103,12.22,-25.37,156.26,-2434.87,3117.97,-13472.31,-1211.95,298.98,13.10
2015-10-18 20:02:51.374,-36.887314,174.66103,21.55,-40.43,130.28,-549.87,4751.97,-13769.31,-1181.95,530.98,273.10
2015-10-18 20:02:52.032,-36.887314,174.66103,12.69,-36.47,157.87,-2110.87,429.97,-4207.31,-1082.95,736.98,-57.90
2015-10-18 20:02:52.262,-36.887314,174.66103,14.90,-34.51,166.96,-737.87,2264.97,-11762.31,-1386.95,613.98,-246.90
2015-10-18 20:02:52.929,-36.887314,174.66103,16.92,-36.55,163.12,-846.87,2784.97,-11081.31,-1197.95,565.98,-207.90
2015-10-18 20:02:53.311,-36.887314,174.66103,19.77,-36.46,164.86,-1928.87,2262.97,-9445.31,-1283.95,501.98,-145.90
2015-10-18 20:02:53.673,-36.887314,174.66103,20.17,-37.87,164.85,-904.87,2964.97,-11345.31,-1225.95,522.98,-68.90
2015-10-18 20:02:54.187,-36.887314,174.66103,19.89,-40.19,164.78,-1600.87,2616.97,-11597.31,-1256.95,562.98,-43.90
2015-10-18 20:02:54.369,-36.887314,174.66103,17.69,-41.54,164.61,-824.87,2192.97,-9499.31,-1264.95,645.98,2.10
2015-10-18 20:02:54.513,-36.887314,174.66103,16.48,-42.80,153.12,-473.87,1097.97,-10965.31,-1172.95,682.98,-142.90
2015-10-18 20:02:55.097,-36.887314,174.66103,15.88,-39.82,154.18,-966.87,1902.97,-9490.31,-1188.95,657.98,-148.90
2015-10-18 20:02:55.197,-36.887314,174.66103,12.12,-33.48,155.43,-381.87,361.97,-10184.31,-1116.95,747.98,-132.90
2015-10-18 20:02:55.985,-36.887314,174.66103,9.14,-31.10,156.07,-1020.87,478.97,-11810.31,-1256.95,819.98,-145.90
2015-10-18 20:02:56.260,-36.887314,174.66103,-0.39,-16.54,161.40,-30.87,674.97,-17471.32,-1100.95,828.98,-400.90
2015-10-18 20:02:56.552,-36.887314,174.66103,-1.20,-11.42,162.55,-1502.87,-838.03,-8955.31,-1162.95,707.98,-433.90
2015-10-18 20:02:57.032,-36.887314,174.66103,-1.72,-7.16,163.40,-1286.87,960.97,-11412.31,-1149.95,678.98,-398.90
2015-10-18 20:02:57.334,-36.887314,174.66103,-2.50,-1.68,163.43,-803.87,-72.03,-15100.31,-1142.95,658.98,-269.90
2015-10-18 20:02:57.567,174.66101,174.66103,-3.07,0.55,163.35,-1157.87,301.97,-9965.31,-1198.95,645.98,-287.90
2015-10-18 20:02:57.886,-36.887333,174.66101,-2.98,3.10,163.62,-548.87,-149.03,-10793.31,-1209.95,609.98,-290.90
2015-10-18 20:02:58.118,-36.887333,174.66101,-1.73,6.20,163.68,-1322.87,-609.03,-9786.31,-1129.95,536.98,-319.90
2015-10-18 20:02:58.377,-36.887333,174.66101,-0.16,8.25,163.51,-2046.87,1970.97,-12639.31,-1197.95,525.98,-257.90
2015-10-18 20:02:58.622,-36.887333,174.66101,4.61,10.51,169.03,-922.87,629.97,-8579.31,-1175.95,496.98,-243.90
2015-10-18 20:02:58.909,-36.887333,174.66101,8.57,8.14,173.89,-2450.87,-70.03,-12942.31,-1230.95,467.98,-225.90
2015-10-18 20:02:59.369,-36.887333,174.66101,10.27,5.91,173.44,-1356.87,-2078.03,-8512.31,-1237.95,445.98,-197.90
2015-10-18 20:02:59.755,-36.887333,174.66101,19.31,0.67,168.14,-864.87,2325.97,-8573.31,-1263.95,470.98,-93.90
2015-10-18 20:02:59.936,-36.887333,174.66101,20.56,-0.92,167.90,-1104.87,3325.97,-9571.31,-1280.95,481.98,-96.90
2015-10-18 20:03:00.070,-36.887333,174.66101,21.71,-1.75,167.69,-1341.87,3151.97,-11963.31,-1165.95,476.98,-88.90
2015-10-18 20:03:00.474,-36.887333,174.66101,23.76,-2.34,167.89,-827.87,3259.97,-10041.31,-1214.95,456.98,-144.90
2015-10-18 20:03:00.739,-36.887333,174.66101,31.59,-2.35,169.07,-1846.87,3060.97,-10588.31,-1183.95,220.98,-205.90
2015-10-18 20:03:01.080,-36.887333,174.66101,37.31,-3.64,169.48,-1437.87,3394.97,-9280.31,-1225.95,206.98,-89.90
2015-10-18 20:03:01.438,-36.887333,174.66101,22.01,-17.15,149.29,-881.87,3118.97,-6765.31,-1050.95,198.98,49.10
2015-10-18 20:03:01.821,-36.887333,174.66101,19.43,-4.52,167.38,-2995.87,3799.97,-8972.31,-1201.95,185.98,2.10
2015-10-18 20:03:02.060,-36.887333,174.66101,25.78,-6.54,168.64,-1169.87,2383.97,-10899.31,-972.95,220.98,282.10
2015-10-18 20:03:02.466,-36.887333,174.66101,28.01,-10.03,169.36,-2256.87,1569.97,-6897.31,-945.95,324.98,288.10
2015-10-18 20:03:02.838,-36.887333,174.66101,31.65,-14.30,171.01,-2603.87,257.97,-15272.31,-1076.95,281.98,191.10
2015-10-18 20:03:02.984,174.66087,174.66101,35.23,-18.03,170.67,-2250.87,720.97,-9054.31,-1141.95,252.98,241.10
2015-10-18 20:03:03.259,-36.887314,174.66087,38.24,-23.15,170.38,-1629.87,77.97,-14722.31,-986.95,289.98,308.10
2015-10-18 20:03:03.664,-36.887314,174.66087,39.81,-29.57,169.80,-740.87,614.97,-18405.32,-920.95,362.98,350.10
2015-10-18 20:03:03.942,-36.887314,174.66087,41.56,-39.40,167.53,-1288.87,2483.97,-11939.31,-989.95,474.98,353.10
2015-10-18 20:03:04.303,-36.887314,174.66087,41.07,-44.74,165.52,-546.87,3071.97,-9495.31,-1198.95,484.98,300.10
2015-10-18 20:03:04.581,-36.887314,174.66087,36.16,-48.15,165.50,-457.87,951.97,-12775.31,-973.95,451.98,242.10
2015-10-18 20:03:04.894,-36.887314,174.66087,35.29,-53.43,161.84,-1554.87,-804.03,-4985.31,-1170.95,490.98,261.10
2015-10-18 20:03:05.955,-36.887314,174.66087,17.45,-46.56,-176.97,-1324.87,539.97,-12504.31,-1146.95,632.98,152.10
2015-10-18 20:03:06.161,-36.887314,174.66087,27.26,-49.65,-175.93,-1534.87,-730.03,-9013.31,-1202.95,605.98,95.10
2015-10-18 20:03:06.838,-36.887314,174.66087,24.39,-52.36,-177.60,-685.87,-308.03,-9783.31,-1293.95,631.98,58.10
2015-10-18 20:03:07.334,-36.887314,174.66087,24.54,-50.32,-172.77,-685.87,1131.97,-18054.32,-1068.95,597.98,-62.90
2015-10-18 20:03:07.630,-36.887314,174.66087,14.76,-44.55,-163.13,-4.87,1571.97,-15662.31,-1383.95,522.98,-51.90
2015-10-18 20:03:08.031,-36.887314,174.66087,18.73,-47.50,-176.61,-567.87,322.97,-8186.31,-1256.95,444.98,-109.90
2015-10-18 20:03:08.292,-36.887314,174.66087,19.13,-46.80,-176.36,-1465.87,2514.97,-15913.31,-1235.95,504.98,-62.90
2015-10-18 20:03:08.720,-36.887314,174.66087,18.80,-47.39,-176.62,-760.87,1044.97,-12023.31,-1273.95,523.98,-28.90
2015-10-18 20:03:09.084,-36.887314,174.66087,17.34,-47.67,-176.54,-626.87,1698.97,-9870.31,-1139.95,571.98,-12.90
2015-10-18 20:03:09.452,-36.887314,174.66087,11.55,-49.42,177.51,-1140.87,3016.97,-12669.31,-1155.95,542.98,-60.90
2015-10-18 20:03:10.101,-36.887314,174.66087,11.80,-47.25,177.32,-1137.87,1881.97,-2548.31,-1215.95,496.98,-105.90
2015-10-18 20:03:10.687,-36.887314,174.66087,23.38,-55.46,145.72,-1102.87,2587.97,-8718.31,-1296.95,501.98,-35.90
2015-10-18 20:03:11.474,-36.887314,174.66087,11.22,-53.34,156.59,-1151.87,3.97,-7315.31,-901.95,564.98,-22.90
2015-10-18 20:03:12.191,-36.887314,174.66087,8.34,-45.64,169.66,-1139.87,2226.97,-16093.31,-1115.95,576.98,-1.90
2015-10-18 20:03:12.390,-36.887314,174.66087,6.50,-44.10,169.82,-1421.87,497.97,-13603.31,-1268.95,558.98,-48.90
2015-10-18 20:03:12.654,-36.887314,174.66087,6.65,-42.92,169.12,-1151.87,1792.97,-11026.31,-1125.95,531.98,-72.90
2015-10-18 20:03:12.920,-36.887314,174.66087,7.23,-39.50,168.63,-827.87,1829.97,-10129.31,-1281.95,492.98,-75.90
2015-10-18 20:03:13.194,-36.887314,174.66087,13.63,-38.84,174.40,-1109.87,2377.97,-15865.31,-1311.95,492.98,-58.90
2015-10-18 20:03:13.722,-36.887993,174.65915,24.35,-45.23,158.90,231.13,579.97,-11241.31,-1262.95,547.98,-0.90
2015-10-18 20:03:14.121,-36.887993,174.65915,24.35,-49.77,158.86,364.13,1445.97,-1995.31,-1253.95,530.98,-39.90
2015-10-18 20:03:14.382,-36.887993,174.65915,23.80,-52.23,158.82,-590.87,1874.97,-9436.31,-1282.95,539.98,-39.90
2015-10-18 20:03:14.724,-36.887993,174.65915,23.81,-52.42,159.14,-2021.87,2934.97,-16414.32,-1181.95,551.98,-37.90
2015-10-18 20:03:15.367,-36.887993,174.65915,23.76,-53.25,159.30,-1364.87,3618.97,-16985.32,-1296.95,539.98,-34.90
2015-10-18 20:03:15.962,-36.887993,174.65915,3.31,-51.92,154.85,-403.87,1738.97,-11064.31,-1239.95,536.98,-57.90
2015-10-18 20:03:16.967,-36.887993,174.65915,13.07,-42.09,148.66,-1614.87,3041.97,-9183.31,-1245.95,467.98,-66.90
2015-10-18 20:03:17.288,-36.887993,174.65915,13.02,-40.80,147.90,-229.87,4009.97,-22664.32,-1296.95,499.98,-80.90
2015-10-18 20:03:17.560,-36.887993,174.65915,10.97,-36.32,172.85,-431.87,1911.97,-5340.31,-1223.95,534.98,-30.90
2015-10-18 20:03:17.966,-36.887993,174.65915,8.52,-39.24,158.61,-1363.87,759.97,597.69,-999.95,549.98,-60.90
2015-10-18 20:03:18.445,-36.887993,174.65915,9.10,-38.74,159.09,-213.87,4327.97,-13163.31,-1163.95,527.98,-48.90
2015-10-18 20:03:18.596,-36.887993,174.65915,14.95,-37.26,165.93,-590.87,2983.97,-14699.31,-1341.95,491.98,-46.90
2015-10-18 20:03:18.883,-36.887993,174.65915,17.38,-41.98,152.03,-1560.87,3139.97,-10468.31,-1283.95,507.98,-58.90
2015-10-18 20:03:19.142,-36.887993,174.65915,16.98,-42.66,151.87,-1309.87,3125.97,-13262.31,-1296.95,522.98,-20.90
2015-10-18 20:03:19.614,-36.887993,174.65915,15.61,-42.38,151.61,-1253.87,3289.97,-8867.31,-1167.95,524.98,-46.90
2015-10-18 20:03:20.357,-36.887993,174.65915,14.81,-42.77,152.46,-1762.87,3668.97,-15667.31,-1291.95,583.98,8.10
2015-10-18 20:03:20.518,-36.887993,174.65915,13.32,-41.18,155.19,-607.87,3505.97,-9735.31,-1249.95,462.98,-109.90
2015-10-18 20:03:21.012,-36.887993,174.65915,18.47,-40.33,154.73,-1162.87,2286.97,-12991.31,-1236.95,347.98,-138.90
2015-10-18 20:03:21.305,-36.887993,174.65915,15.60,-38.31,167.10,-663.87,1166.97,-11896.31,-1291.95,64.98,-162.90
2015-10-18 20:03:21.692,-36.887993,174.65915,16.71,-42.72,159.30,-1883.87,3419.97,-11558.31,-1139.95,124.98,91.10
2015-10-18 20:03:22.073,-36.887993,174.65915,21.05,-45.20,159.53,-1544.87,1629.97,-12307.31,-1289.95,266.98,198.10
2015-10-18 20:03:22.466,-36.887993,174.65915,11.09,-48.72,171.31,-835.87,188.97,-11870.31,-1111.95,422.98,367.10
2015-10-18 20:03:22.993,-36.887993,174.65915,26.90,-49.45,172.17,-449.87,1378.97,-16121.31,-1171.95,289.98,267.10
2015-10-18 20:03:23.371,-36.887993,174.65915,4.15,-51.16,179.07,-1502.87,761.97,-8564.31,-1228.95,244.98,165.10
2015-10-18 20:03:24.107,-36.887993,174.65915,21.12,-55.93,170.89,-2576.87,1869.97,-15746.31,-821.95,242.98,280.10
2015-10-18 20:03:24.670,-36.887993,174.65915,27.42,-75.23,166.02,-427.87,59.97,-13952.31,-1094.95,593.98,399.10
2015-10-18 20:03:24.924,-36.887993,174.65915,19.96,-78.72,171.10,-365.87,-713.03,-11386.31,-1266.95,578.98,241.10
2015-10-18 20:03:25.248,-36.887993,174.65915,16.32,-81.33,170.67,-1729.87,-1317.03,-10645.31,-1263.95,690.98,229.10
2015-10-18 20:03:25.679,-36.887993,174.65915,13.80,-82.63,170.29,-2548.87,1083.97,-12157.31,-1173.95,647.98,64.10
2015-10-18 20:03:26.143,-36.887993,174.65915,11.49,-82.91,169.68,-1220.87,231.97,-15379.31,-1316.95,577.98,51.10
2015-10-18 20:03:26.311,-36.887993,174.65915,0.97,-79.74,-175.76,-1261.87,1226.97,-15798.31,-1268.95,577.98,23.10
2015-10-18 20:03:26.697,-36.887993,174.65915,0.17,-77.88,-176.23,-1234.87,322.97,-14018.31,-1296.95,596.98,14.10
2015-10-18 20:03:26.966,-36.887993,174.65915,14.71,-73.57,-170.50,1007.13,2846.97,-9403.31,-1043.95,551.98,-57.90
2015-10-18 20:03:27.511,-36.887993,174.65915,13.87,-74.62,-170.17,306.13,2427.97,-13172.31,-1202.95,539.98,-42.90
2015-10-18 20:03:27.757,-36.887993,174.65915,12.61,-76.38,-170.01,-1178.87,-553.03,-9271.31,-1227.95,524.98,-36.90
2015-10-18 20:03:28.016,-36.887993,174.65915,11.74,-76.56,-169.89,-1344.87,1657.97,-8516.31,-1232.95,537.98,-43.90
2015-10-18 20:03:28.321,-36.887993,174.65915,10.85,-76.52,-170.09,-750.87,1139.97,-10138.31,-1243.95,538.98,-37.90
2015-10-18 20:03:28.682,-36.887993,174.65915,10.26,-75.75,-170.05,-800.87,2021.97,-6553.31,-1274.95,521.98,-71.90
2015-10-18 20:03:28.950,-36.887993,174.65915,10.26,-75.75,-170.05,-475.87,2021.97,-6553.31,-1243.95,482.98,-58.90
2015-10-18 20:03:29.513,-36.887993,174.65915,7.60,-83.06,148.41,-1249.87,2087.97,-12177.31,-1164.95,567.98,32.10
2015-10-18 20:03:29.833,-36.887993,174.65915,6.29,-88.28,148.96,-1599.87,1793.97,-11437.31,-1250.95,704.98,82.10
2015-10-18 20:03:30.244,-36.887993,174.65915,2.96,-89.93,148.55,-458.87,2870.97,-10276.31,-1175.95,749.98,24.10
2015-10-18 20:03:30.951,-36.887993,174.65915,1.15,-89.82,145.88,-2665.87,3365.97,-12272.31,-1129.95,671.98,-81.90
2015-10-18 20:03:31.197,-36.887993,174.65915,3.95,-98.09,138.39,-1361.87,779.97,-14670.31,-1214.95,645.98,-82.90
2015-10-18 20:03:31.478,-36.887993,174.65915,3.51,-101.78,138.21,-662.87,270.97,-13427.31,-1266.95,641.98,-95.90
2015-10-18 20:03:31.876,-36.887993,174.65915,3.42,-102.58,138.35,-1439.87,1174.97,-10251.31,-1233.95,636.98,-136.90
2015-10-18 20:03:32.523,-36.887993,174.65915,3.53,-104.99,138.63,-716.87,1670.97,-11745.31,-1200.95,664.98,-132.90
2015-10-18 20:03:32.937,-36.887993,174.65915,1.89,-94.68,162.62,-1353.87,3442.97,-19307.32,-1134.95,617.98,-173.90
2015-10-18 20:03:33.201,-36.887993,174.65915,1.35,-85.53,162.90,-1775.87,803.97,-10741.31,-1199.95,589.98,-165.90
2015-10-18 20:03:33.721,-36.887993,174.65915,1.53,-81.88,163.01,-1693.87,3144.97,-11960.31,-1175.95,566.98,-183.90
2015-10-18 20:03:34.127,-36.890213,174.65901,3.33,-74.17,163.22,-109.87,2426.97,-12704.31,-1178.95,506.98,-201.90
2015-10-18 20:03:34.391,-36.890213,174.65901,7.39,-70.96,163.38,-1439.87,1840.97,-8552.31,-1248.95,401.98,-225.90
2015-10-18 20:03:34.684,-36.890213,174.65901,11.07,-68.82,163.42,-982.87,1512.97,-7919.31,-1309.95,354.98,-238.90
2015-10-18 20:03:35.062,-36.890213,174.65901,15.28,-68.07,163.67,-560.87,2904.97,-10186.31,-1259.95,302.98,-210.90
2015-10-18 20:03:35.731,-36.890213,174.65901,21.18,-68.12,163.74,-1157.87,2538.97,-10216.31,-1321.95,301.98,-149.90
2015-10-18 20:03:35.998,-36.890213,174.65901,28.99,-69.76,164.04,-977.87,3474.97,-10781.31,-1212.95,284.98,-76.90
2015-10-18 20:03:36.117,-36.890213,174.65901,26.27,-82.43,140.33,-945.87,3453.97,-15730.31,-1213.95,305.98,-20.90
2015-10-18 20:03:36.370,-36.890213,174.65901,28.33,-86.47,139.48,-1607.87,2415.97,-9108.31,-1212.95,327.98,12.10
2015-10-18 20:03:36.771,-36.890213,174.65901,28.75,-91.58,138.95,-1853.87,1466.97,-10580.31,-1186.95,417.98,79.10
2015-10-18 20:03:37.294,-36.890213,174.65901,29.69,-97.52,138.60,-3044.87,4618.97,-13941.31,-1285.95,382.98,36.10
2015-10-18 20:03:37.575,-36.890213,174.65901,29.26,-105.90,137.67,-1079.87,2324.97,-9653.31,-1208.95,453.98,103.10
2015-10-18 20:03:37.832,-36.890213,174.65901,28.39,-109.86,137.19,-1584.87,2488.97,-9155.31,-1159.95,478.98,133.10
2015-10-18 20:03:38.628,-36.890213,174.65901,27.41,-112.12,136.72,-1306.87,4677.97,-11169.31,-1114.95,490.98,101.10
2015-10-18 20:03:39.552,174.65938,174.65901,24.69,-120.38,136.06,-2111.87,1329.97,-10991.31,-1219.95,514.98,94.10
2015-10-18 20:03:39.830,-36.890728,174.65938,18.03,-118.54,145.27,-1931.87,2201.97,-10189.31,-1298.95,518.98,72.10
2015-10-18 20:03:40.131,-36.890728,174.65938,16.78,-116.46,144.97,-1480.87,1064.97,-11920.31,-1211.95,549.98,92.10
2015-10-18 20:03:40.606,-36.890728,174.65938,14.65,-114.31,144.52,-2151.87,1821.97,-12930.31,-1197.95,602.98,106.10
2015-10-18 20:03:40.758,-36.890728,174.65938,12.59,-114.57,144.34,-52.87,2116.97,-13416.31,-1243.95,629.98,70.10
2015-10-18 20:03:41.156,-36.890728,174.65938,11.07,-113.74,144.17,-689.87,3438.97,-11777.31,-1156.95,599.98,36.10
2015-10-18 20:03:41.409,-36.890728,174.65938,13.93,-107.23,168.51,-674.87,1278.97,-3518.31,-1070.95,659.98,22.10
2015-10-18 20:03:41.792,-36.890728,174.65938,13.93,-107.23,168.51,337.13,1278.97,-3518.31,-1239.95,590.98,-32.90
2015-10-18 20:03:42.101,-36.890728,174.65938,0.66,-115.11,106.08,-9.87,2359.97,-11055.31,-1218.95,562.98,-11.90
2015-10-18 20:03:42.326,-36.890728,174.65938,0.74,-129.65,105.07,-1411.87,3087.97,-10986.31,-1201.95,617.98,-6.90
2015-10-18 20:03:42.597,-36.890728,174.65938,0.89,-145.15,104.17,-380.87,2870.97,-11973.31,-1227.95,644.98,-14.90
2015-10-18 20:03:43.144,-36.890728,174.65938,-2.14,-141.59,143.60,-1532.87,1133.97,-8976.31,-1245.95,598.98,-173.90
2015-10-18 20:03:43.419,-36.890728,174.65938,0.33,-127.24,143.00,-693.87,1771.97,-9417.31,-1253.95,443.98,-171.90
2015-10-18 20:03:43.654,-36.890728,174.65938,5.51,-116.91,144.28,37.13,3034.97,-12423.31,-1224.95,408.98,-159.90
2015-10-18 20:03:44.197,174.6599,174.65938,7.69,-111.84,143.95,-839.87,3323.97,-10941.31,-1334.95,426.98,-106.90
2015-10-18 20:03:44.913,-36.891083,174.6599,10.77,-106.61,143.14,-526.87,3081.97,-10995.31,-1174.95,468.98,-64.90
2015-10-18 20:03:45.626,-36.891083,174.6599,11.85,-106.71,143.84,-486.87,1099.97,-4199.31,-1211.95,522.98,-17.90
2015-10-18 20:03:46.065,-36.891083,174.6599,15.60,-106.52,145.15,-743.87,2165.97,-8383.31,-1256.95,535.98,7.10
2015-10-18 20:03:46.833,-36.891083,174.6599,10.63,-105.50,142.97,-1346.87,3730.97,-10899.31,-1286.95,334.98,-148.90
2015-10-18 20:03:47.302,-36.891083,174.6599,22.36,-113.37,141.52,-2172.87,2436.97,-10439.31,-1274.95,202.98,-54.90
2015-10-18 20:03:48.063,-36.891083,174.6599,26.97,137.54,27.29,-1746.87,1752.97,-11334.31,-1343.95,323.98,105.10
2015-10-18 20:03:48.204,-36.891083,174.6599,40.42,135.80,57.89,-1043.87,2028.97,-7041.31,-1072.95,253.98,158.10
2015-10-18 20:03:48.416,-36.891083,174.6599,40.18,131.89,68.62,-549.87,2533.97,-11716.31,-1022.95,269.98,189.10
2015-10-18 20:03:48.970,-36.891083,174.6599,36.17,122.82,68.75,-2218.87,1844.97,-14437.31,-1129.95,284.98,216.10
2015-10-18 20:03:49.223,-36.891083,174.6599,27.62,108.39,71.43,-983.87,3133.97,-9992.31,-1043.95,321.98,247.10
2015-10-18 20:03:49.633,-36.89132,174.6607,23.45,102.71,73.31,-2645.87,2472.97,-12508.31,-1006.95,346.98,260.10
2015-10-18 20:03:50.011,-36.89132,174.6607,17.63,95.65,76.13,-1667.87,1007.97,-12170.31,-1045.95,372.98,251.10
2015-10-18 20:03:50.565,-36.89132,174.6607,17.57,93.24,90.49,-2260.87,687.97,-9611.31,-1125.95,368.98,223.10
2015-10-18 20:03:51.143,-36.89132,174.6607,17.57,93.24,90.49,-2260.87,687.97,-9611.31,-1040.95,368.98,223.1
2015-10-18 20:03:51.482,-36.89132,174.6607,15.56,65.22,166.32,-2010.87,-662.03,-8158.31,-1183.95,541.98,198.10
2015-10-18 20:03:51.889,-36.89132,174.6607,13.13,50.70,166.64,-1448.87,-86.03,-14510.31,-1267.95,628.98,229.10
2015-10-18 20:03:52.171,-36.89132,174.6607,9.57,36.97,166.82,-1141.87,491.97,-11036.31,-1255.95,633.98,126.10
2015-10-18 20:03:52.692,-36.89132,174.6607,7.91,30.57,167.29,-1607.87,1733.97,-15451.31,-1226.95,614.98,84.10
2015-10-18 20:03:52.954,-36.89132,174.6607,43.70,23.40,-167.70,-66.87,105.97,-12702.31,-1439.95,593.98,21.10
2015-10-18 20:03:53.221,-36.89132,174.6607,42.98,14.31,-166.36,-1755.87,1162.97,-14154.31,-1211.95,572.98,-13.90
2015-10-18 20:03:53.461,-36.89132,174.6607,43.06,5.47,-164.36,-193.87,-170.03,-12573.31,-1193.95,494.98,-81.90
2015-10-18 20:03:53.747,-36.89132,174.6607,43.24,-5.33,-163.28,-1651.87,726.97,-4390.31,-1289.95,486.98,-39.90
2015-10-18 20:03:54.335,-36.89132,174.6607,5.92,-11.30,168.80,-1792.87,3423.97,-11924.31,-1223.95,488.98,-11.90
2015-10-18 20:03:54.530,-36.89132,174.6607,10.12,-5.23,165.40,-646.87,1451.97,-11020.31,-1298.95,521.98,-15.90
2015-10-18 20:03:54.816,-36.89132,174.6607,9.97,4.08,165.57,-1205.87,905.97,-9866.31,-1296.95,535.98,-8.90
2015-10-18 20:03:55.053,-36.89132,174.6607,10.78,9.76,166.44,-1212.87,1652.97,-14433.31,-1212.95,553.98,-22.90
2015-10-18 20:03:55.441,-36.89132,174.6607,1.47,14.52,167.44,-1179.87,1914.97,-8186.31,-1328.95,527.98,-38.90
2015-10-18 20:03:55.957,-36.89132,174.6607,11.88,16.78,169.31,-1030.87,76.97,-13596.31,-1276.95,476.98,-75.90
2015-10-18 20:03:56.240,-36.89132,174.6607,14.95,14.65,170.18,-845.87,2081.97,-13673.31,-1270.95,397.98,-113.90
2015-10-18 20:03:56.500,-36.89132,174.6607,19.75,10.53,171.09,-1904.87,2785.97,-8810.31,-1281.95,322.98,-118.90
2015-10-18 20:03:57.030,-36.89132,174.6607,22.32,7.70,171.44,-680.87,1128.97,-10788.31,-1230.95,353.98,-32.90
2015-10-18 20:03:57.990,-36.89132,174.6607,26.88,-0.15,172.79,-818.87,3236.97,-7152.31,-1257.95,361.98,-16.90
2015-10-18 20:03:58.275,-36.89132,174.6607,14.39,-5.80,139.10,-796.87,2319.97,-10727.31,-1088.95,594.98,142.10
2015-10-18 20:03:58.459,174.66151,174.6607,13.27,9.93,138.96,-1133.87,2193.97,-8419.31,-1155.95,555.98,77.10
2015-10-18 20:03:58.953,-36.890728,174.66151,12.98,23.58,139.31,-1923.87,1132.97,-8172.31,-1193.95,537.98,45.10
2015-10-18 20:03:59.152,-36.890728,174.66151,14.31,38.30,139.16,-1088.87,2656.97,-8465.31,-1265.95,458.98,18.10
2015-10-18 20:03:59.395,-36.890728,174.66151,14.32,46.58,144.72,-2383.87,1413.97,-13080.31,-1176.95,459.98,18.10
2015-10-18 20:03:59.808,-36.890728,174.66151,14.83,49.70,144.60,-1150.87,835.97,-4574.31,-1216.95,484.98,25.10
2015-10-18 20:04:00.055,-36.890728,174.66151,24.92,46.06,173.24,-960.87,3094.97,-16650.32,-1170.95,449.98,40.10
2015-10-18 20:04:00.847,-36.890728,174.66151,25.04,33.69,173.74,-2168.87,1922.97,-14418.31,-1168.95,495.98,74.10
2015-10-18 20:04:01.368,-36.890728,174.66151,24.45,8.53,173.95,-1613.87,1823.97,-11158.31,-1214.95,494.98,9.10
2015-10-18 20:04:02.005,-36.890728,174.66151,17.66,-8.34,159.67,-3150.87,602.97,-4980.31,-1197.95,490.98,30.10
2015-10-18 20:04:02.786,-36.890728,174.66151,6.40,3.43,164.64,-1019.87,-228.03,-8087.31,-1316.95,532.98,33.10
2015-10-18 20:04:02.991,-36.890728,174.66151,5.52,13.49,160.48,-1353.87,2231.97,-12634.31,-1169.95,598.98,13.10
2015-10-18 20:04:03.299,-36.890728,174.66151,5.05,16.40,160.28,-617.87,2096.97,-11492.31,-1253.95,561.98,-10.90
2015-10-18 20:04:03.730,174.66148,174.66151,19.52,18.92,159.71,-808.87,2972.97,-11643.31,-1167.95,534.98,-26.90
2015-10-18 20:04:03.878,-36.889793,174.66148,13.06,21.92,160.97,-531.87,2035.97,-7490.31,-1324.95,486.98,-58.90
2015-10-18 20:04:04.416,-36.889793,174.66148,12.31,20.65,154.18,-1713.87,1030.97,-10025.31,-1273.95,524.98,-28.90
2015-10-18 20:04:04.729,-36.889793,174.66148,12.46,27.61,154.31,-1035.87,1521.97,-7340.31,-1172.95,529.98,-42.90
2015-10-18 20:04:04.974,-36.889793,174.66148,12.55,30.72,154.40,-1549.87,1804.97,-10310.31,-1246.95,526.98,-6.90
2015-10-18 20:04:05.233,-36.889793,174.66148,8.70,33.81,157.80,-512.87,3293.97,-13460.31,-1258.95,618.98,36.10
2015-10-18 20:04:05.489,-36.889793,174.66148,8.07,36.72,157.79,-34.87,5441.97,-11315.31,-1222.95,596.98,-35.90
2015-10-18 20:04:05.712,-36.889793,174.66148,11.13,34.92,144.25,392.13,2485.97,-8147.31,-1187.95,532.98,-108.90
2015-10-18 20:04:05.994,-36.889793,174.66148,12.82,41.84,144.20,-469.87,3059.97,-13010.31,-1178.95,466.98,-87.90
2015-10-18 20:04:06.314,-36.889793,174.66148,19.65,40.82,118.89,-1094.87,3826.97,-13229.31,-1333.95,507.98,-26.90
2015-10-18 20:04:06.524,-36.889793,174.66148,18.88,55.39,129.49,-702.87,3145.97,-8539.31,-1272.95,532.98,-35.90
2015-10-18 20:04:06.923,-36.889793,174.66148,20.04,62.37,129.36,-1319.87,5323.97,-12081.31,-1208.95,499.98,-65.90
2015-10-18 20:04:07.183,-36.889793,174.66148,7.23,70.61,141.20,-1227.87,3800.97,-8959.31,-1247.95,682.98,126.10
2015-10-18 20:04:07.434,-36.889793,174.66148,13.09,68.51,155.51,-1467.87,2357.97,-8403.31,-1320.95,831.98,140.10
2015-10-18 20:04:07.692,-36.889793,174.66148,4.92,62.02,156.48,-1832.87,4749.97,-14030.31,-1279.95,958.98,105.10
2015-10-18 20:04:08.291,-36.889793,174.66148,-0.11,59.60,157.88,-844.87,5358.97,-10304.31,-1063.95,953.98,-134.90
2015-10-18 20:04:08.550,-36.889793,174.66148,-2.24,59.36,159.69,-489.87,4908.97,-8359.31,-1127.95,785.98,-264.90
2015-10-18 20:04:09.281,-36.889793,174.66148,12.46,60.84,141.91,-813.87,4292.97,-12964.31,-1096.95,594.98,-504.90
2015-10-18 20:04:09.553,-36.889793,174.66148,0.78,91.56,159.78,16.13,1816.97,-11928.31,-1213.95,822.98,-94.90
2015-10-18 20:04:09.950,-36.889793,174.66148,-2.81,91.69,160.93,456.13,2588.97,-9859.31,-1182.95,832.98,-228.90
2015-10-18 20:04:10.217,-36.889793,174.66148,9.81,93.70,146.75,-2480.87,1389.97,-2083.31,-1267.95,861.98,-263.90
2015-10-18 20:04:10.497,-36.889793,174.66148,12.67,111.01,158.20,-2976.87,5947.97,-25141.32,-1124.95,764.98,-434.90
2015-10-18 20:04:11.001,-36.889793,174.66148,28.17,152.02,174.57,-918.87,1105.97,-14545.31,-998.95,683.98,-327.90
2015-10-18 20:04:11.412,-36.889793,174.66148,25.98,172.17,178.96,-598.87,-1431.03,-14870.31,-1075.95,702.98,-286.90
2015-10-18 20:04:11.523,-36.889793,174.66148,24.08,-168.47,-176.61,-1969.87,-950.03,-9281.31,-1217.95,635.98,-328.90
2015-10-18 20:04:12.060,-36.889793,174.66148,23.46,-151.78,-171.67,321.13,838.97,-18932.32,-1139.95,531.98,-357.90
2015-10-18 20:04:12.475,-36.889793,174.66148,-1.74,-117.59,-178.66,-1481.87,-892.03,-11396.31,-1174.95,438.98,-277.90
2015-10-18 20:04:13.120,-36.889793,174.66148,1.38,-98.71,-179.13,-1556.87,-1346.03,-10413.31,-1307.95,367.98,-205.90
2015-10-18 20:04:13.390,-36.889793,174.66148,4.17,-85.92,-178.44,-638.87,555.97,-14944.31,-1211.95,472.98,-75.90
2015-10-18 20:04:13.574,-36.889793,174.66148,4.29,-81.48,-178.84,-1923.87,633.97,-10006.31,-1198.95,528.98,-55.90
2015-10-18 20:04:13.821,-36.889793,174.66148,4.20,-77.10,-178.88,111.13,130.97,-8608.31,-1266.95,536.98,-35.90
2015-10-18 20:04:14.060,-36.889793,174.66148,38.40,-62.73,-146.30,-1801.87,618.97,-12253.31,-1447.95,500.98,-41.90
2015-10-18 20:04:14.487,-36.889793,174.66148,37.28,-67.01,-146.68,-366.87,322.97,-17005.32,-1485.95,489.98,-61.90
2015-10-18 20:04:14.974,-36.889793,174.66148,34.95,-73.59,-147.69,-1771.87,1705.97,-15497.31,-1231.95,584.98,2.10
2015-10-18 20:04:15.270,-36.889793,174.66148,33.81,-76.31,-145.93,-1371.87,2252.97,-9503.31,-1282.95,514.98,-37.90
2015-10-18 20:04:16.060,-36.889793,174.66148,33.56,-76.42,-144.52,-1404.87,2515.97,-10864.31,-1260.95,453.98,-83.90
2015-10-18 20:04:16.218,-36.889793,174.66148,31.79,-80.05,-155.50,-1400.87,2220.97,-4672.31,-1140.95,365.98,-95.90
2015-10-18 20:04:18.079,174.66142,174.66148,35.02,-90.52,-173.47,-1077.87,3115.97,-11056.31,-1205.95,376.98,-63.90
2015-10-18 20:04:18.420,-36.888973,174.66142,45.23,-99.37,-168.93,-2039.87,2801.97,-14457.31,-1222.95,362.98,-24.90
2015-10-18 20:04:18.691,-36.888973,174.66142,47.33,-99.50,-167.73,-141.87,1176.97,-12072.31,-1243.95,393.98,19.10
2015-10-18 20:04:19.202,-36.888973,174.66142,49.46,-99.43,-166.62,-1029.87,1624.97,-9844.31,-1187.95,391.98,24.10
2015-10-18 20:04:20.294,-36.888973,174.66142,30.52,-106.97,-174.65,-1771.87,2480.97,-12820.31,-1286.95,456.98,95.10
2015-10-18 20:04:20.580,-36.888973,174.66142,12.45,-130.26,167.65,-2890.87,1977.97,-18609.32,-1093.95,541.98,-42.90
2015-10-18 20:04:21.252,-36.888973,174.66142,14.70,-115.95,168.63,-2000.87,2308.97,-5135.31,-1307.95,510.98,2.10
2015-10-18 20:04:21.474,-36.888973,174.66142,12.96,-101.56,163.74,-756.87,2339.97,-8409.31,-1337.95,508.98,20.10
2015-10-18 20:04:21.772,-36.888973,174.66142,12.28,-88.70,163.25,-1236.87,1511.97,-12187.31,-1261.95,569.98,56.10
2015-10-18 20:04:22.074,-36.888973,174.66142,11.35,-74.50,162.71,-1326.87,2026.97,-9533.31,-1304.95,568.98,18.10
2015-10-18 20:04:22.329,174.66197,174.66142,9.93,-85.13,162.56,-1396.87,3373.97,-14303.31,-1242.95,617.98,27.10
2015-10-18 20:04:22.666,-36.88887,174.66197,9.10,-73.44,162.69,-163.87,2879.97,-13730.31,-1350.95,589.98,-14.90
2015-10-18 20:04:22.935,-36.88887,174.66197,9.15,-64.49,162.42,-1066.87,1765.97,-12166.31,-1263.95,532.98,-45.90
2015-10-18 20:04:23.551,-36.88887,174.66197,9.50,-58.87,162.28,-1491.87,3612.97,-15405.31,-1291.95,527.98,-54.90
2015-10-18 20:04:24.074,-36.88887,174.66197,9.82,-69.12,161.76,-1737.87,3185.97,-11185.31,-1140.95,524.98,-61.90
2015-10-18 20:04:24.232,-36.88887,174.66197,10.60,-62.56,161.78,-981.87,1181.97,-10200.31,-1311.95,493.98,-57.90
2015-10-18 20:04:24.359,-36.88887,174.66197,8.69,-52.69,160.82,-1207.87,1739.97,-8508.31,-1316.95,523.98,-44.90
2015-10-18 20:04:25.185,-36.88887,174.66197,9.44,-33.90,159.93,-391.87,3262.97,-13206.31,-1188.95,497.98,-65.90
2015-10-18 20:04:25.573,-36.88887,174.66197,10.27,7.86,160.22,-1480.87,3288.97,-14640.31,-1281.95,575.98,-7.90
2015-10-18 20:04:25.707,-36.88887,174.66197,10.85,25.21,160.03,-1606.87,2375.97,-11453.31,-1206.95,525.98,-75.90
2015-10-18 20:04:25.972,-36.88887,174.66197,11.68,42.08,160.05,-818.87,3502.97,-9656.31,-1242.95,495.98,-67.90
2015-10-18 20:04:26.363,-36.88887,174.66197,29.36,58.70,157.62,-1995.87,3594.97,-12614.31,-1021.95,493.98,-92.90
2015-10-18 20:04:26.819,-36.88887,174.66197,32.60,83.00,158.59,-971.87,4401.97,-13154.31,-1209.95,439.98,-93.90
2015-10-18 20:04:27.062,-36.88887,174.66197,38.50,108.65,160.21,-586.87,3353.97,-13402.31,-1234.95,312.98,-135.90
2015-10-18 20:04:27.960,174.66376,174.66197,44.51,124.28,161.86,-449.87,3373.97,-12711.31,-1224.95,190.98,-187.90
2015-10-18 20:04:29.145,-36.887688,174.66376,30.62,130.15,148.15,-1752.87,3709.97,-12304.31,-1132.95,382.98,84.10
2015-10-18 20:04:29.249,-36.887688,174.66376,16.31,101.36,-179.30,-2334.87,1958.97,-10523.31,-1119.95,519.98,176.10
2015-10-18 20:04:29.416,-36.887688,174.66376,16.30,83.07,-178.81,-1287.87,2672.97,-15036.31,-1185.95,503.98,133.10
2015-10-18 20:04:29.844,-36.887688,174.66376,16.08,64.46,-178.67,-1033.87,3061.97,-7987.31,-1185.95,540.98,139.10
2015-10-18 20:04:30.237,-36.887688,174.66376,16.71,39.85,-177.96,-1449.87,1805.97,-10577.31,-1162.95,477.98,82.10
2015-10-18 20:04:30.376,-36.887688,174.66376,18.23,28.49,-177.63,-964.87,2318.97,-10096.31,-1171.95,421.98,22.10
2015-10-18 20:04:30.611,-36.887688,174.66376,22.00,19.68,-176.60,-1698.87,2154.97,-5746.31,-1149.95,247.98,-57.90
2015-10-18 20:04:31.407,-36.887688,174.66376,26.24,13.11,-175.28,-744.87,2415.97,-14497.31,-1185.95,231.98,-10.90
2015-10-18 20:04:31.701,-36.887688,174.66376,27.59,-3.35,175.50,-592.87,1938.97,-11716.31,-1166.95,401.98,172.10
2015-10-18 20:04:32.068,-36.887688,174.66376,27.93,-2.28,176.12,-383.87,1395.97,-11734.31,-1147.95,481.98,196.10
2015-10-18 20:04:32.337,-36.887688,174.66376,30.30,-1.17,176.94,-405.87,3469.97,-12267.31,-1100.95,383.98,120.10
2015-10-18 20:04:32.732,174.66376,174.66376,31.72,-2.50,177.42,-2092.87,1378.97,-11502.31,-1147.95,390.98,126.10
2015-10-18 20:04:33.004,-36.887688,174.66376,33.90,-4.85,177.92,-952.87,1765.97,-9725.31,-1161.95,429.98,166.10
2015-10-18 20:04:33.343,-36.887688,174.66376,34.88,-7.42,177.93,-1714.87,772.97,-14490.31,-1160.95,434.98,152.10
2015-10-18 20:04:33.553,-36.887688,174.66376,34.91,-10.44,177.77,-1671.87,1141.97,-8155.31,-1231.95,489.98,176.10
2015-10-18 20:04:34.181,-36.887688,174.66376,34.12,-13.38,177.29,-1134.87,1558.97,-12300.31,-1036.95,553.98,213.10
2015-10-18 20:04:34.505,-36.887688,174.66376,17.49,-17.38,174.99,-1251.87,-439.03,-11011.31,-1199.95,747.98,264.10
2015-10-18 20:04:35.112,-36.887688,174.66376,11.46,-16.06,174.35,-2079.87,935.97,-10261.31,-1210.95,726.98,132.10
2015-10-18 20:04:35.503,-36.887688,174.66376,5.55,-13.62,173.50,-1508.87,3179.97,-8795.31,-1240.95,605.98,-8.90
2015-10-18 20:04:35.823,-36.887688,174.66376,4.42,-10.66,173.10,-1739.87,1875.97,-7588.31,-1224.95,551.98,-59.90
2015-10-18 20:04:36.027,-36.887688,174.66376,6.70,-10.24,153.97,-1002.87,3248.97,-12414.31,-1309.95,524.98,-48.90
2015-10-18 20:04:36.399,-36.887688,174.66376,7.05,-1.29,153.53,-571.87,3457.97,-10928.31,-1284.95,535.98,-73.90
2015-10-18 20:04:36.814,-36.887688,174.66376,7.99,4.43,153.33,-1190.87,5181.97,-13573.31,-1324.95,495.98,-80.90
2015-10-18 20:04:37.081,-36.887688,174.66376,9.92,11.29,152.94,-1085.87,1755.97,-10733.31,-1250.95,493.98,-84.90
2015-10-18 20:04:37.603,-36.887688,174.66376,11.46,13.78,152.82,-1252.87,1952.97,-4900.31,-1203.95,463.98,-81.90
2015-10-18 20:04:37.937,-36.88636,174.66348,14.46,14.37,158.03,-2311.87,2819.97,-11216.31,-1256.95,373.98,-92.90
2015-10-18 20:04:38.301,-36.88636,174.66348,17.32,13.28,157.93,-2286.87,2772.97,-12880.31,-1219.95,364.98,-76.90
2015-10-18 20:04:39.086,-36.88636,174.66348,23.36,11.64,157.84,-1338.87,3224.97,-14176.31,-1270.95,261.98,-99.90
2015-10-18 20:04:39.787,-36.88636,174.66348,30.85,6.43,159.05,-1338.87,2714.97,-14123.31,-1093.95,359.98,89.10
2015-10-18 20:04:40.005,-36.88636,174.66348,9.90,3.50,174.46,-1879.87,2195.97,-11550.31,-1189.95,441.98,139.10
2015-10-18 20:04:40.394,-36.88636,174.66348,8.92,-4.09,175.39,-493.87,2215.97,-10813.31,-1119.95,530.98,177.10
2015-10-18 20:04:40.684,-36.88636,174.66348,13.78,-9.21,167.66,-437.87,1995.97,-14064.31,-1114.95,520.98,170.10
2015-10-18 20:04:41.127,-36.88636,174.66348,13.40,-10.57,167.87,-2081.87,1606.97,-11985.31,-1087.95,499.98,115.10
2015-10-18 20:04:41.841,-36.88636,174.66348,13.97,-12.23,168.08,-1310.87,812.97,-14280.31,-1183.95,470.98,72.10
2015-10-18 20:04:42.529,-36.88636,174.66348,22.25,-12.91,169.34,-1089.87,1253.97,-11158.31,-1101.95,260.98,-16.90
2015-10-18 20:04:42.699,-36.88636,174.66348,25.32,-17.59,170.28,-1279.87,1004.97,-14776.31,-1091.95,466.98,162.10
2015-10-18 20:04:43.287,174.66348,174.66348,26.33,-19.64,170.56,-1084.87,3186.97,-14084.31,-1144.95,416.98,120.10
2015-10-18 20:04:43.559,-36.88636,174.66348,24.12,-24.08,172.03,-1322.87,2081.97,-13857.31,-1201.95,437.98,101.10
2015-10-18 20:04:43.840,-36.88636,174.66348,25.63,-25.77,172.43,-2548.87,719.97,-15156.31,-1217.95,398.98,99.10
2015-10-18 20:04:44.459,-36.88636,174.66348,27.05,-27.20,173.08,-1416.87,2367.97,-15692.31,-1153.95,407.98,110.10
2015-10-18 20:04:44.787,-36.88636,174.66348,28.16,-30.76,174.53,-1071.87,240.97,-14380.31,-1037.95,432.98,138.10
2015-10-18 20:04:45.200,-36.88636,174.66348,26.45,-36.21,174.67,-539.87,1497.97,-13322.31,-1138.95,555.98,175.10
2015-10-18 20:04:45.686,-36.88636,174.66348,23.82,-39.95,174.25,-1474.87,425.97,-11627.31,-1135.95,586.98,167.10
2015-10-18 20:04:45.887,-36.88636,174.66348,19.25,-43.24,173.73,-702.87,2909.97,-12226.31,-1209.95,664.98,182.10
2015-10-18 20:04:46.228,-36.88636,174.66348,18.92,-43.47,176.87,-894.87,279.97,-12599.31,-1186.95,697.98,135.10
2015-10-18 20:04:46.883,-36.88636,174.66348,16.34,-45.28,176.39,-1821.87,-266.03,-14854.31,-1228.95,576.98,60.10
2015-10-18 20:04:47.313,-36.88636,174.66348,15.13,-46.66,-176.94,-883.87,1367.97,-13584.31,-1245.95,649.98,41.10
2015-10-18 20:04:47.400,-36.88636,174.66348,-2.87,-46.82,-174.45,-1389.87,854.97,-11980.31,-998.95,650.98,0.10
2015-10-18 20:04:47.933,-36.88636,174.66348,-5.13,-45.46,-174.98,-319.87,584.97,-11884.31,-1175.95,638.98,-3.90
2015-10-18 20:04:48.209,174.66177,174.66348,27.46,-44.87,166.70,-1076.87,2139.97,-16824.32,-1114.95,522.98,-72.90
2015-10-18 20:04:48.659,-36.886497,174.66177,19.57,-47.22,164.21,-1893.87,3420.97,-11412.31,-1228.95,496.98,-104.90
2015-10-18 20:04:49.006,-36.886497,174.66177,21.11,-48.56,164.45,-1294.87,2120.97,-14779.31,-1250.95,446.98,-86.90
2015-10-18 20:04:49.260,-36.886497,174.66177,17.40,-47.79,166.76,-559.87,2186.97,-16382.31,-1247.95,442.98,-85.90
2015-10-18 20:04:49.540,-36.886497,174.66177,7.41,-50.38,150.98,-589.87,2862.97,-9249.31,-1192.95,504.98,-28.90
2015-10-18 20:04:49.831,-36.886497,174.66177,7.65,-47.84,150.41,-2241.87,1523.97,-11923.31,-1266.95,500.98,-27.90
2015-10-18 20:04:50.056,-36.886497,174.66177,5.22,-43.73,153.75,-310.87,3115.97,-11184.31,-1337.95,525.98,-5.90
2015-10-18 20:04:50.449,-36.886497,174.66177,3.68,-40.55,153.12,-830.87,2733.97,-3024.31,-1172.95,615.98,27.10
2015-10-18 20:04:50.775,-36.886497,174.66177,10.77,-32.59,144.19,-708.87,6103.97,-17634.32,-1244.95,616.98,36.10
2015-10-18 20:04:51.150,-36.886497,174.66177,9.42,-33.07,143.18,-2010.87,1903.97,-11102.31,-1134.95,590.98,-8.90
2015-10-18 20:04:51.547,-36.886497,174.66177,8.84,-33.19,142.44,-665.87,2759.97,-7001.31,-1192.95,567.98,-36.90
2015-10-18 20:04:52.009,-36.886497,174.66177,0.82,-31.98,156.99,-11.87,2322.97,-16742.32,-1253.95,634.98,13.10
2015-10-18 20:04:52.341,-36.886497,174.66177,-1.02,-32.54,156.33,-1561.87,1559.97,-9250.31,-1207.95,591.98,-46.90
2015-10-18 20:04:52.590,-36.886497,174.66177,9.06,-32.82,142.47,-845.87,5478.97,-16718.32,-1240.95,510.98,-96.90
2015-10-18 20:04:53.463,-36.886497,174.66177,9.24,-32.57,141.92,-1211.87,5408.97,-7033.31,-1223.95,580.98,-70.90
2015-10-18 20:04:53.533,174.66109,174.66177,3.63,-32.70,133.22,-604.87,3628.97,-4832.31,-1306.95,508.98,-111.90
2015-10-18 20:04:53.759,-36.887447,174.66109,-0.05,-26.44,134.36,-1836.87,5349.97,-10004.31,-1247.95,512.98,-122.90
2015-10-18 20:04:54.696,-36.887447,174.66109,5.19,-20.34,143.30,-416.87,2745.97,5588.69,-1210.95,515.98,-63.90
2015-10-18 20:04:55.143,-36.887447,174.66109,5.19,-20.34,143.3,-416.87,2745.97,5588.69,-931.95,635.98,-63.9
2015-10-18 20:04:55.343,-36.887447,174.66109,7.37,-16.88,129.86,-666.87,3189.97,-7223.31,-1306.95,600.98,-95.90
2015-10-18 20:04:56.613,-36.887447,174.66109,8.67,-13.99,129.95,-840.87,3653.97,-10626.31,-1121.95,567.98,-137.90
2015-10-18 20:04:56.797,-36.887447,174.66109,12.58,-6.81,129.58,-397.87,3013.97,-12887.31,-1182.95,621.98,-142.90
2015-10-18 20:04:57.081,-36.887447,174.66109,13.90,-5.66,130.22,-889.87,2130.97,-10015.31,-1223.95,609.98,-172.90
2015-10-18 20:04:57.319,-36.887447,174.66109,13.71,-4.72,130.68,-1166.87,1891.97,-13796.31,-1277.95,640.98,-70.90
2015-10-18 20:04:57.756,-36.887447,174.66109,12.07,-1.86,131.51,-1538.87,1534.97,-15212.31,-1238.95,727.98,-59.90
2015-10-18 20:04:58.344,-36.887447,174.66109,2.02,-0.53,158.47,-1317.87,-593.03,-10585.31,-1119.95,939.98,-108.90
2015-10-18 20:04:58.524,-36.887447,174.66109,-3.24,-2.72,160.28,-453.87,644.97,-10558.31,-967.95,965.98,-284.90
2015-10-18 20:04:58.756,-36.887447,174.66109,-9.19,-1.58,162.75,-2547.87,1404.97,-12659.31,-1145.95,883.98,-435.90
2015-10-18 20:04:58.912,-36.887447,174.66109,-11.78,0.46,163.18,-1322.87,312.97,-20002.32,-1149.95,772.98,-435.90
2015-10-18 20:04:59.313,-36.887447,174.66109,-14.55,1.93,162.70,-1039.87,904.97,-13609.31,-1039.95,803.98,-360.90
2015-10-18 20:05:00.499,-36.887447,174.66109,-17.36,6.92,161.42,-501.87,768.97,-16814.32,-1209.95,717.98,-361.90
2015-10-18 20:05:01.029,-36.887447,174.66109,1.68,6.64,179.46,-1566.87,214.97,-13324.31,-1174.95,454.98,-303.90
2015-10-18 20:05:01.435,-36.887447,174.66109,9.31,2.35,177.68,-1164.87,272.97,-11033.31,-1362.95,319.98,-252.90
2015-10-18 20:05:01.575,-36.887447,174.66109,11.00,-0.30,177.33,-1786.87,2144.97,-9233.31,-1240.95,408.98,-145.90
2015-10-18 20:05:02.085,174.66058,174.66109,10.67,-3.79,176.73,-770.87,1750.97,-13805.31,-1305.95,513.98,-17.90
2015-10-18 20:05:02.785,-36.887627,174.66058,13.92,12.99,144.69,-1775.87,4610.97,-17173.32,-1244.95,673.98,-18.90
2015-10-18 20:05:03.282,-36.887627,174.66058,22.04,38.01,145.40,-474.87,3330.97,-10005.31,-1254.95,285.98,-384.90
2015-10-18 20:05:03.511,-36.887627,174.66058,23.86,42.56,153.88,-1726.87,2487.97,-13231.31,-1288.95,19.98,-398.90
2015-10-18 20:05:04.064,-36.887627,174.66058,31.34,38.47,154.46,-1896.87,5028.97,-9625.31,-1310.95,-23.02,-168.90
2015-10-18 20:05:04.472,-36.887627,174.66058,32.91,20.71,154.06,-2296.87,5160.97,-16439.32,-1060.95,184.98,142.10
2015-10-18 20:05:04.730,-36.887627,174.66058,35.25,13.33,153.07,-2432.87,3082.97,-10236.31,-1056.95,243.98,261.10
2015-10-18 20:05:05.123,-36.887627,174.66058,33.03,-3.15,136.85,-2469.87,2570.97,-11688.31,-1154.95,316.98,294.10
2015-10-18 20:05:05.393,-36.887627,174.66058,33.12,-5.45,136.55,-1684.87,1169.97,-8046.31,-1088.95,269.98,277.10
2015-10-18 20:05:05.930,-36.887627,174.66058,32.84,-8.65,136.67,-1825.87,1376.97,-13284.31,-952.95,268.98,300.10
2015-10-18 20:05:06.065,-36.887627,174.66058,29.53,-13.45,136.65,-1868.87,281.97,-3813.31,-1045.95,377.98,376.10
2015-10-18 20:05:06.479,-36.887627,174.66058,29.53,-13.45,136.65,-1868.87,281.97,-3813.31,-920.95,432.98,373.10
2015-10-18 20:05:07.260,174.66023,174.66058,15.85,-6.66,-152.39,-1310.87,1945.97,-15328.31,-1025.95,480.98,262.10
2015-10-18 20:05:07.650,-36.8873,174.66023,18.40,-30.23,-158.56,-1130.87,235.97,-6755.31,-927.95,608.98,246.10
2015-10-18 20:05:08.102,-36.8873,174.66023,16.04,-38.16,-159.91,-531.87,-180.03,-8090.31,-1210.95,685.98,222.10
2015-10-18 20:05:08.598,-36.8873,174.66023,13.37,-41.47,-161.68,-1331.87,-612.03,-16639.32,-1285.95,594.98,59.10
2015-10-18 20:05:08.927,-36.8873,174.66023,11.06,-42.90,-162.82,-1028.87,-30.03,-15926.31,-1248.95,581.98,39.10
2015-10-18 20:05:09.262,-36.8873,174.66023,9.68,-43.68,-163.46,-1971.87,702.97,-14913.31,-1250.95,558.98,6.10
2015-10-18 20:05:09.395,-36.8873,174.66023,19.10,-44.70,-164.00,-1984.87,-1361.03,-1545.31,-1285.95,586.98,8.10
2015-10-18 20:05:09.643,-36.8873,174.66023,26.31,-48.38,-164.01,-1501.87,-95.03,-14801.31,-1296.95,567.98,-15.90
2015-10-18 20:05:09.951,-36.8873,174.66023,19.46,-32.44,-122.93,-179.87,1715.97,-17032.32,-1246.95,589.98,-21.90
2015-10-18 20:05:10.305,-36.8873,174.66023,12.72,-49.34,-175.73,-2290.87,-1297.03,-8068.31,-1261.95,500.98,-71.90
2015-10-18 20:05:10.747,-36.8873,174.66023,13.67,-47.46,-176.02,-270.87,3348.97,-15712.31,-1230.95,544.98,-29.90
2015-10-18 20:05:10.867,-36.8873,174.66023,18.43,-52.03,162.23,-1211.87,2380.97,-14946.31,-1246.95,538.98,-19.90
2015-10-18 20:05:11.342,-36.8873,174.66023,17.89,-51.04,162.20,-311.87,2552.97,-14160.31,-1144.95,544.98,-26.90
2015-10-18 20:05:11.757,-36.8873,174.66023,16.09,-50.52,161.11,-385.87,927.97,2782.69,-1264.95,555.98,-29.90
2015-10-18 20:05:12.553,174.66003,174.66023,12.25,-46.65,97.85,-760.87,2940.97,-15393.31,-1178.95,533.98,-89.90
2015-10-18 20:05:14.210,-36.887135,174.66003,9.64,-14.87,161.84,-1792.87,769.97,-17220.32,-1138.95,496.98,9.10
2015-10-18 20:05:14.261,-36.887135,174.66003,10.29,-29.54,154.71,-1090.87,2543.97,-15468.31,-1100.95,568.98,-5.90
2015-10-18 20:05:14.411,-36.887135,174.66003,5.39,-29.59,172.74,-565.87,3150.97,-6894.31,-1136.95,542.98,-18.90
2015-10-18 20:05:14.687,-36.887135,174.66003,11.62,-34.01,166.97,709.13,2782.97,-11039.31,-1244.95,550.98,-17.90
2015-10-18 20:05:14.948,-36.887135,174.66003,10.24,-37.18,163.86,-1031.87,2920.97,-8290.31,-1234.95,562.98,-20.90
2015-10-18 20:05:15.461,-36.887135,174.66003,1.49,-40.66,136.43,-326.87,1886.97,-5808.31,-1332.95,562.98,1.10
2015-10-18 20:05:15.742,-36.887135,174.66003,15.46,-37.32,86.74,-716.87,2857.97,-12302.31,-1250.95,544.98,-67.90
2015-10-18 20:05:15.990,-36.887135,174.66003,16.52,-4.10,118.04,-1051.87,1212.97,-6025.31,-1288.95,491.98,-62.90
2015-10-18 20:05:17.076,-36.887135,174.66003,15.34,4.63,139.89,-1248.87,949.97,-8082.31,-1109.95,547.98,-74.90
2015-10-18 20:05:17.172,-36.887135,174.66003,6.46,-22.25,160.52,-678.87,2134.97,-12144.31,-1306.95,513.98,-20.90
2015-10-18 20:05:17.442,-36.887135,174.66003,4.66,-27.12,159.86,-1254.87,993.97,-5948.31,-1148.95,620.98,43.10
2015-10-18 20:05:17.705,-36.887135,174.66003,4.36,-29.91,165.06,-1097.87,2952.97,-7779.31,-1211.95,582.98,-30.90
2015-10-18 20:05:18.121,-36.887135,174.66003,4.09,-32.29,164.75,-2003.87,2353.97,-8005.31,-1350.95,531.98,-76.90
2015-10-18 20:05:18.441,-36.887135,174.66003,7.04,-34.05,128.02,-2266.87,1294.97,-6994.31,-1121.95,492.98,-107.90
2015-10-18 20:05:18.886,-36.887135,174.66003,8.31,-26.75,127.29,-1485.87,6516.97,-13807.31,-1162.95,477.98,-68.90
2015-10-18 20:05:19.431,-36.887135,174.66003,10.14,-29.88,136.87,-151.87,4547.97,-14716.31,-1156.95,567.98,-12.90
2015-10-18 20:05:20.140,-36.887135,174.66003,8.10,-25.36,149.83,-726.87,2810.97,-7580.31,-1188.95,547.98,-27.90
2015-10-18 20:05:20.623,-36.887135,174.66003,6.67,-29.15,160.43,-552.87,1520.97,-13748.31,-1182.95,547.98,-83.90
2015-10-18 20:05:20.892,-36.887135,174.66003,13.01,-37.65,134.51,-1140.87,2901.97,-11159.31,-1173.95,466.98,-83.90
2015-10-18 20:05:21.176,-36.887135,174.66003,14.93,-34.68,133.90,-56.87,2239.97,-9855.31,-1187.95,458.98,-89.90
2015-10-18 20:05:21.683,-36.887135,174.66003,18.27,-32.55,133.23,-1191.87,4791.97,-12688.31,-1256.95,397.98,-129.90
2015-10-18 20:05:21.953,-36.887135,174.66003,19.50,-32.67,142.40,-840.87,3823.97,-13144.31,-1272.95,108.98,-121.90
2015-10-18 20:05:22.188,-36.887135,174.66003,23.60,-33.12,150.87,-1569.87,3548.97,-12245.31,-1233.95,151.98,16.10
2015-10-18 20:05:22.464,-36.887135,174.66003,19.60,-34.82,157.40,705.13,1055.97,-1983.31,-1237.95,174.98,82.10
2015-10-18 20:05:22.730,-36.887135,174.66003,32.61,-43.05,155.13,-3432.87,5907.97,-11853.31,-933.95,239.98,253.10
2015-10-18 20:05:23.129,-36.887135,174.66003,20.04,-50.94,150.57,-1065.87,1384.97,-9842.31,-1330.95,329.98,203.10
2015-10-18 20:05:23.598,-36.887135,174.66003,22.39,-52.64,150.56,-1311.87,2207.97,-2478.31,-1055.95,213.98,208.10
2015-10-18 20:05:23.866,-36.887135,174.66003,44.52,-93.04,110.66,-2440.87,3205.97,-12331.31,-783.95,271.98,310.10
2015-10-18 20:05:24.268,-36.887135,174.66003,21.34,-75.57,164.70,-2552.87,2035.97,-15885.31,-911.95,273.98,304.10
2015-10-18 20:05:24.803,-36.887135,174.66003,20.08,-74.65,168.11,-1644.87,-509.03,-17511.32,-975.95,322.98,364.10
2015-10-18 20:05:24.984,-36.887135,174.66003,18.62,-76.13,168.97,-1646.87,1124.97,-10959.31,-952.95,439.98,278.10
2015-10-18 20:05:25.660,-36.887135,174.66003,29.58,-65.42,-161.38,-1651.87,-40.03,-18017.32,-1270.95,526.98,287.10
2015-10-18 20:05:25.925,-36.887135,174.66003,23.92,-75.33,-164.99,-1439.87,210.97,-8830.31,-1175.95,717.98,220.10
2015-10-18 20:05:26.773,-36.887135,174.66003,14.92,-79.04,-166.94,-1848.87,-65.03,-11682.31,-1123.95,654.98,45.10
2015-10-18 20:05:27.423,-36.887135,174.66003,12.71,-76.53,-166.50,-236.87,-93.03,-9276.31,-1255.95,536.98,-24.90
2015-10-18 20:05:27.892,174.65775,174.66003,19.23,-74.78,-162.36,-664.87,1396.97,-19312.32,-1321.95,630.98,-28.90
2015-10-18 20:05:28.034,-36.888996,174.65775,16.38,-76.69,-162.11,-1347.87,1937.97,-11699.31,-1278.95,572.98,-86.90
2015-10-18 20:05:28.293,-36.888996,174.65775,15.02,-76.33,-161.84,-269.87,2935.97,-11724.31,-1165.95,530.98,-71.90
2015-10-18 20:05:28.562,-36.888996,174.65775,14.01,-75.98,-161.45,-1022.87,426.97,-13645.31,-1175.95,494.98,-125.90
2015-10-18 20:05:28.879,-36.888996,174.65775,10.85,-77.53,-174.28,-351.87,1253.97,-9776.31,-1173.95,458.98,-114.90
2015-10-18 20:05:29.325,-36.888996,174.65775,19.74,-83.36,160.49,-2532.87,1369.97,-9161.31,-1253.95,491.98,-65.90
2015-10-18 20:05:29.477,-36.888996,174.65775,23.64,-86.75,157.95,-2471.87,4310.97,-18615.32,-1180.95,530.98,-36.90
2015-10-18 20:05:30.028,-36.888996,174.65775,4.35,-89.06,150.24,-1234.87,3866.97,-10914.31,-1217.95,586.98,14.10
2015-10-18 20:05:30.492,-36.888996,174.65775,0.30,-86.09,149.28,-1309.87,3237.97,-7999.31,-1190.95,669.98,34.10
2015-10-18 20:05:30.990,-36.888996,174.65775,2.88,-83.11,155.74,-877.87,3078.97,-7596.31,-1332.95,711.98,29.10
2015-10-18 20:05:31.133,-36.888996,174.65775,-2.05,-84.05,155.61,105.13,1528.97,-5321.31,-1195.95,765.98,-5.90
2015-10-18 20:05:31.334,-36.888996,174.65775,5.32,-85.16,162.78,-54.87,3992.97,-11629.31,-1254.95,699.98,-52.90
2015-10-18 20:05:31.612,-36.888996,174.65775,3.23,-85.91,163.03,-446.87,3251.97,-10130.31,-1218.95,653.98,-89.90
2015-10-18 20:05:32.274,-36.888996,174.65775,1.05,-86.14,163.15,-1179.87,3087.97,-12287.31,-1114.95,688.98,-92.90
2015-10-18 20:05:32.552,-36.888996,174.65775,-1.84,-83.60,163.80,388.13,2463.97,-10954.31,-1153.95,570.98,-188.90
2015-10-18 20:05:32.875,-36.888996,174.65775,4.13,-81.62,160.09,30.13,3776.97,-17782.32,-1184.95,635.98,-166.90
2015-10-18 20:05:33.203,-36.888996,174.65775,14.21,-78.63,169.42,-1089.87,2708.97,-14828.31,-1113.95,585.98,-183.90
2015-10-18 20:05:33.631,174.65903,174.65775,13.51,-78.91,170.45,-1049.87,3286.97,-12762.31,-1325.95,561.98,-167.90
2015-10-18 20:05:33.885,-36.890194,174.65903,13.10,-78.42,172.22,-476.87,2605.97,-13100.31,-1263.95,561.98,-156.90
2015-10-18 20:05:34.295,-36.890194,174.65903,13.72,-76.44,173.28,-1013.87,1717.97,-12889.31,-1163.95,501.98,-211.90
2015-10-18 20:05:34.515,-36.890194,174.65903,17.29,-72.40,174.84,-1447.87,1780.97,-11415.31,-1262.95,357.98,-274.90
2015-10-18 20:05:34.936,-36.890194,174.65903,21.17,-69.79,175.82,-1431.87,3214.97,-8515.31,-1289.95,288.98,-263.90
2015-10-18 20:05:35.479,-36.890194,174.65903,12.67,-75.41,151.43,-1159.87,3825.97,-12493.31,-1162.95,281.98,-179.90
2015-10-18 20:05:35.762,-36.890194,174.65903,17.76,-74.75,150.18,-988.87,3734.97,-16200.31,-1244.95,376.98,-84.90
2015-10-18 20:05:36.105,-36.890194,174.65903,20.18,-74.63,149.45,-14.87,2906.97,-8802.31,-1246.95,362.98,-57.90
2015-10-18 20:05:36.381,-36.890194,174.65903,23.50,-79.35,141.23,949.13,3098.97,-11797.31,-1186.95,328.98,-47.90
2015-10-18 20:05:36.635,-36.890194,174.65903,26.48,-81.19,140.48,-2080.87,3118.97,-14753.31,-1259.95,292.98,-75.90
2015-10-18 20:05:36.892,-36.890194,174.65903,28.37,-85.62,140.04,-911.87,3531.97,-10959.31,-1187.95,354.98,14.10
2015-10-18 20:05:37.220,-36.890194,174.65903,29.61,-89.24,139.18,-193.87,2105.97,-1753.31,-1183.95,364.98,40.10
2015-10-18 20:05:37.431,-36.890194,174.65903,61.48,-113.95,115.10,-955.87,3868.97,-12913.31,-1128.95,425.98,100.10
2015-10-18 20:05:38.279,-36.890194,174.65903,52.73,-102.84,136.81,-1341.87,3546.97,-10338.31,-1167.95,457.98,72.10
